[
  {
    "type": "node",
    "id": 420401353,
    "lat": -7.287037,
    "lon": 112.7759826,
    "tags": {
      "addr:city": "Surabaya",
      "addr:country": "ID",
      "addr:housenumber": "24; 25",
      "addr:street": "Jalan Klampis Jaya",
      "craft": "photographer",
      "name": "Singapore Focus Wedding",
      "shop": "photo"
    }
  },
  {
    "type": "node",
    "id": 839732250,
    "lat": -7.2902926,
    "lon": 112.79971,
    "tags": {
      "name": "Pangkas Rambut Doctor",
      "shop": "hairdresser"
    }
  },
  {
    "type": "node",
    "id": 1341296744,
    "lat": -7.2999506,
    "lon": 112.7700657,
    "tags": {
      "addr:housename": "APOTIK RUMINI",
      "addr:postcode": "60119",
      "amenity": "pharmacy",
      "name": "APOTIK RUMINI"
    }
  },
  {
    "type": "node",
    "id": 1341344618,
    "lat": -7.2976572,
    "lon": 112.7673095,
    "tags": {
      "amenity": "theatre",
      "name": "teater kusuma UNTAG"
    }
  },
  {
    "type": "node",
    "id": 1548354004,
    "lat": -7.294936,
    "lon": 112.767632,
    "tags": {
      "addr:housenumber": "4",
      "addr:street": "Jalan Manyar Rejo III",
      "amenity": "fast_food",
      "name": "Mr. Jack",
      "opening_hours": "24/7",
      "phone": "+62 31 5937465"
    }
  },
  {
    "type": "node",
    "id": 1583612462,
    "lat": -7.2883447,
    "lon": 112.7765411,
    "tags": {
      "access": "customers",
      "addr:street": "Jl. Arief Rachman Hakim 51",
      "amenity": "motorcycle_parking",
      "description": "parkir sepeda motor universitas Narotama",
      "name": "Universitas Narotama",
      "phone": "031-5946404",
      "website": "https://www.narotama.ac.id/"
    }
  },
  {
    "type": "node",
    "id": 1583828318,
    "lat": -7.3000873,
    "lon": 112.7642977,
    "tags": {
      "addr:street": "Jl. Nginden Semolo No. 34-36",
      "amenity": "university",
      "description": "salah satu kampus swasta di surabaya",
      "name": "Sekolah Tinggi Ilmu Ekonomi Perbanas",
      "phone": "031-5938151",
      "website": "www.perbanas.ac.id"
    }
  },
  {
    "type": "node",
    "id": 3061260106,
    "lat": -7.2834389,
    "lon": 112.7938908,
    "tags": {
      "amenity": "atm",
      "check_date": "2021-01-23",
      "name": "Bank Mandiri"
    }
  },
  {
    "type": "node",
    "id": 3061260107,
    "lat": -7.2838707,
    "lon": 112.7937351,
    "tags": {
      "amenity": "atm",
      "check_date": "2021-01-23",
      "name": "BNI"
    }
  },
  {
    "type": "node",
    "id": 3061260108,
    "lat": -7.2824987,
    "lon": 112.7942755,
    "tags": {
      "amenity": "atm",
      "name": "BRI"
    }
  },
  {
    "type": "node",
    "id": 3067860700,
    "lat": -7.3010592,
    "lon": 112.7757839,
    "tags": {
      "name": "Indomaret Semolowaru",
      "shop": "convenience"
    }
  },
  {
    "type": "node",
    "id": 3067860977,
    "lat": -7.3014742,
    "lon": 112.7755593,
    "tags": {
      "name": "Alfamaret Semolowaru",
      "shop": "convenience"
    }
  },
  {
    "type": "node",
    "id": 3123400743,
    "lat": -7.28143,
    "lon": 112.7957744,
    "tags": {
      "amenity": "parking",
      "name": "Parkir Perpustakaan ITS"
    }
  },
  {
    "type": "node",
    "id": 3299549762,
    "lat": -7.3033612,
    "lon": 112.7788627,
    "tags": {
      "name": "Alfamart",
      "shop": "convenience"
    }
  },
  {
    "type": "node",
    "id": 3582190594,
    "lat": -7.2827935,
    "lon": 112.7814541,
    "tags": {
      "name": "Astra 2000",
      "shop": "car"
    }
  },
  {
    "type": "node",
    "id": 3582190595,
    "lat": -7.2841826,
    "lon": 112.7810374,
    "tags": {
      "addr:city": "East Java, Surabaya",
      "addr:housenumber": "Nomor 35 C",
      "addr:postcode": "60116",
      "addr:street": "Jalan Kertajaya Indah Timur",
      "name": "Hartono Elektronika",
      "opening_hours": "Mo-Su 10:00-21:30",
      "shop": "electronics",
      "website": "https://www.hartonoelektronika.com/"
    }
  },
  {
    "type": "node",
    "id": 4187484631,
    "lat": -7.3030962,
    "lon": 112.781233,
    "tags": {
      "addr:city": "Surabaya",
      "addr:housenumber": "3M MakassaRuko Central Business Park No 8 r",
      "addr:postcode": "60119",
      "addr:street": "Jl Dr Ir Soekarno Merr Semolowaru",
      "amenity": "restaurant",
      "name": "3M Makassar"
    }
  },
  {
    "type": "node",
    "id": 4188628738,
    "lat": -7.2897571,
    "lon": 112.7862061,
    "tags": {
      "addr:city": "Surabaya",
      "addr:housenumber": "No.69-A",
      "addr:postcode": "60111",
      "addr:street": "Jl. Arief Rachman Hakim 107-109",
      "name": "Alfa Express Doho",
      "shop": "convenience"
    }
  },
  {
    "type": "node",
    "id": 4188697264,
    "lat": -7.2963965,
    "lon": 112.7714767,
    "tags": {
      "addr:city": "Manyar, Surabaya, Jawa Timur,",
      "addr:postcode": "60116",
      "addr:street": "Manyar Jaya VIII",
      "amenity": "veterinary",
      "name": "Kandang Alpin"
    }
  },
  {
    "type": "node",
    "id": 4188727533,
    "lat": -7.2999315,
    "lon": 112.7669391,
    "tags": {
      "addr:city": "Surabaya",
      "addr:housenumber": "No.48",
      "addr:postcode": "60118",
      "addr:street": "Jl. Nginden Semolo",
      "name": "Alfamart Nginden Semolo 1",
      "shop": "convenience"
    }
  },
  {
    "type": "node",
    "id": 4188756874,
    "lat": -7.2995751,
    "lon": 112.7666976,
    "tags": {
      "addr:city": "Ngiden Jangkungan, Sukolilo, Surabaya",
      "addr:postcode": "60118",
      "addr:street": "Jalan Nginden Semolo",
      "amenity": "post_office",
      "name": "Kantor Pos Untag"
    }
  },
  {
    "type": "node",
    "id": 4188794949,
    "lat": -7.2879559,
    "lon": 112.7873681,
    "tags": {
      "addr:city": "Keputih, Sukolilo, Surabaya",
      "addr:postcode": "60111",
      "addr:street": "Jl. Raya Kertajaya Indah",
      "building": "apartments",
      "name": "Apartemen Puncak Kertajaya"
    }
  },
  {
    "type": "node",
    "id": 4188855620,
    "lat": -7.2902568,
    "lon": 112.7836654,
    "tags": {
      "addr:city": "Keputih, Sukolilo, Surabaya, East Java",
      "addr:postcode": "60111",
      "addr:street": "Jl. Arief Rachman Hakim",
      "building": "residential",
      "name": "Regency 21"
    }
  },
  {
    "type": "node",
    "id": 4188904941,
    "lat": -7.287316,
    "lon": 112.7758197,
    "tags": {
      "addr:city": "Klampis Ngasem, Sukolilo, Surabaya",
      "addr:housenumber": "No.30",
      "addr:postcode": "60117",
      "addr:street": "Jl. Klampis Jaya Ruko Klampis Square A",
      "amenity": "pharmacy",
      "healthcare": "pharmacy",
      "name": "Apotek Klampis Farma"
    }
  },
  {
    "type": "node",
    "id": 4189026731,
    "lat": -7.2895368,
    "lon": 112.7689557,
    "tags": {
      "addr:city": "Manyar, Surabaya",
      "addr:housenumber": "No. 62",
      "addr:postcode": "60118",
      "addr:street": "Jl. Menur Pumpugan",
      "amenity": "atm",
      "name": "Atm Mandiri Apartemen Gunawangsa"
    }
  },
  {
    "type": "node",
    "id": 4189052852,
    "lat": -7.2828044,
    "lon": 112.7810773,
    "tags": {
      "addr:city": "Klampis Ngasem, Sukolilo, Surabaya",
      "addr:postcode": "60116",
      "addr:street": "Jl. Sukarno Hatta No.35,",
      "name": "Auto 2000",
      "shop": "car"
    }
  },
  {
    "type": "node",
    "id": 4189109905,
    "lat": -7.2861164,
    "lon": 112.7802725,
    "tags": {
      "addr:city": "Kertajaya, Surabaya",
      "addr:postcode": "60285",
      "addr:street": "Jalan Kertajaya Indah Timur",
      "name": "Axa Financial Indonesia-Galaxy Bumi Permai",
      "office": "yes"
    }
  },
  {
    "type": "node",
    "id": 4189199496,
    "lat": -7.2894445,
    "lon": 112.7760609,
    "tags": {
      "addr:city": "Klampis Ngasem, Sukolilo, Surabaya, East Java",
      "addr:housenumber": "No. 51",
      "addr:postcode": "60117",
      "addr:street": "Jl. Arief Rachman Hakim",
      "building": "residential",
      "name": "Ruko 21"
    }
  },
  {
    "type": "node",
    "id": 4189229661,
    "lat": -7.3061578,
    "lon": 112.7928194,
    "tags": {
      "addr:city": "Medokan Semampir, Sukolilo, Kota SBY, Jawa Timur, Indonesia",
      "addr:postcode": "60119",
      "addr:street": "Jl. Koala Regency,",
      "building": "residential",
      "name": "Koala Regency"
    }
  },
  {
    "type": "node",
    "id": 4189234299,
    "lat": -7.2998796,
    "lon": 112.7707178,
    "tags": {
      "addr:city": "Menur Pumpungan, Sukolilo, Surabaya, East Java",
      "addr:postcode": "60118",
      "addr:street": "Jl. Nginden Semolo",
      "building": "residential",
      "name": "Ruko Manyar Garden"
    }
  },
  {
    "type": "node",
    "id": 4189243240,
    "lat": -7.2836188,
    "lon": 112.780497,
    "tags": {
      "addr:city": "Klampis Ngasem, Sukolilo, Surabaya",
      "addr:housenumber": "Blok 14-C No. 5",
      "addr:postcode": "60118",
      "addr:street": "JL. Insinyur Haji Soekarno",
      "building": "residential",
      "name": "Ruko Mega Galaxy"
    }
  },
  {
    "type": "node",
    "id": 4191048384,
    "lat": -7.2948767,
    "lon": 112.7625001,
    "tags": {
      "addr:city": "Menur Pumpungan, Sukolilo, Surabaya, East Java",
      "addr:housenumber": "No.53D",
      "addr:postcode": "60118",
      "addr:street": "Jalan Raya Manyar",
      "amenity": "cafe",
      "name": "Sapi Milk"
    }
  },
  {
    "type": "node",
    "id": 4191101739,
    "lat": -7.2881922,
    "lon": 112.7980034,
    "tags": {
      "addr:city": "Keputih, Sukolilo, Surabaya, East Java",
      "addr:housenumber": "No. 2C",
      "addr:postcode": "60111",
      "addr:street": "Jl. Keputih",
      "amenity": "restaurant",
      "name": "Sate Kambing & Gulai Keputih"
    }
  },
  {
    "type": "node",
    "id": 4191146360,
    "lat": -7.289908,
    "lon": 112.7755455,
    "tags": {
      "addr:city": "Klampis Ngasem, Sukolilo, Surabaya, East Java",
      "addr:housenumber": "No. 18 Sukolilo",
      "addr:postcode": "60117",
      "addr:street": "Jalan Arif Rahman Hakim",
      "name": "Broadway Barbershop",
      "shop": "hairdresser"
    }
  },
  {
    "type": "node",
    "id": 4191146385,
    "lat": -7.2820499,
    "lon": 112.7892322,
    "tags": {
      "addr:city": "Gebang Putih, Sukolilo, Surabaya, East Java",
      "addr:housenumber": "No.2B",
      "addr:postcode": "60117",
      "addr:street": "Jl. Gebang Wetan",
      "amenity": "restaurant",
      "name": "Sego Njamoer"
    }
  },
  {
    "type": "node",
    "id": 4191160089,
    "lat": -7.2911441,
    "lon": 112.8020775,
    "tags": {
      "addr:city": "Sukolilo, Surabaya, Jawa Timur",
      "addr:postcode": "60111",
      "addr:street": "Jl. Keputih",
      "building": "residential",
      "name": "BUMI MARINA EMAS"
    }
  },
  {
    "type": "node",
    "id": 4191180353,
    "lat": -7.2828265,
    "lon": 112.7763242,
    "tags": {
      "addr:city": "Klampis Ngasem, Sukolilo, Surabaya, East Java",
      "addr:postcode": "60115",
      "addr:street": "Jl. Klampis Jaya",
      "amenity": "restaurant",
      "name": "Cailano"
    }
  },
  {
    "type": "node",
    "id": 4191195170,
    "lat": -7.2975725,
    "lon": 112.7678291,
    "tags": {
      "addr:city": "Manyar, Mulyorejo, Surabaya",
      "addr:housenumber": "1A",
      "addr:postcode": "60116",
      "addr:street": "Jl. Manyar Jaya V",
      "amenity": "restaurant",
      "name": "Makan Rumahan"
    }
  },
  {
    "type": "node",
    "id": 4191209509,
    "lat": -7.299638,
    "lon": 112.7706461,
    "tags": {
      "addr:city": "Menur Pumpungan, Sukolilo, Surabaya, East Java",
      "addr:postcode": "60118",
      "addr:street": "Jalan Nginden Semolo",
      "building": "residential",
      "name": "Manyar Garden Regency"
    }
  },
  {
    "type": "node",
    "id": 4191265501,
    "lat": -7.2996828,
    "lon": 112.764173,
    "tags": {
      "addr:city": "Ngiden Jangkungan, Sukolilo, Surabaya",
      "addr:housenumber": "No.20",
      "addr:postcode": "60118",
      "addr:street": "Jalan Nginden Semolo",
      "name": "Circle K Nginden Semolo",
      "shop": "convenience"
    }
  },
  {
    "type": "node",
    "id": 4191286175,
    "lat": -7.3035544,
    "lon": 112.7790154,
    "tags": {
      "addr:city": "Medokan Semampir, Sukolilo, Surabaya",
      "addr:postcode": "60119",
      "addr:street": "Jl. Semolowaru Tengah IX/27",
      "name": "Citraretna Wedding Gallery",
      "office": "yes"
    }
  },
  {
    "type": "node",
    "id": 4191391086,
    "lat": -7.2868818,
    "lon": 112.7757162,
    "tags": {
      "addr:city": "Klampis Ngasem, Sukolilo, Surabaya",
      "addr:postcode": "60117",
      "addr:street": "Jl. Klampis Jaya",
      "amenity": "cafe",
      "name": "Coffee Toffee"
    }
  },
  {
    "type": "node",
    "id": 4191447224,
    "lat": -7.2998743,
    "lon": 112.7715044,
    "tags": {
      "addr:city": "Menur Pumpungan, Sukolilo, Surabaya, East Java",
      "addr:housenumber": "No. 101",
      "addr:postcode": "60118",
      "addr:street": "JL. Nginden Semolo,",
      "name": "CREA.inc - PT. Crea Cipta Cemerlang",
      "office": "yes"
    }
  },
  {
    "type": "node",
    "id": 4191878233,
    "lat": -7.2879591,
    "lon": 112.7757647,
    "tags": {
      "addr:city": "Klampis Ngasem, Sukolilo, Surabaya",
      "addr:housenumber": "No.10 B",
      "addr:postcode": "60117",
      "addr:street": "Jl. Klampis Jaya",
      "amenity": "restaurant",
      "name": "De Mandailing"
    }
  },
  {
    "type": "node",
    "id": 4192735790,
    "lat": -7.295653,
    "lon": 112.7812929,
    "tags": {
      "addr:city": "Semolowaru, Sukolilo, Surabaya, East Java",
      "addr:housenumber": "No.220",
      "addr:postcode": "60119",
      "addr:street": "Jl. Dr. Ir. H. Soekarno",
      "amenity": "restaurant",
      "name": "Soto Ayam Lamongan Cak Har"
    }
  },
  {
    "type": "node",
    "id": 4192830312,
    "lat": -7.2891047,
    "lon": 112.8134068,
    "tags": {
      "addr:city": "Keputih, Sukolilo, Surabaya, East Java",
      "addr:postcode": "60111",
      "addr:street": "Jl. Raya Sukolilo Kasih",
      "building": "residential",
      "name": "Sukolilo Dian Regency"
    }
  },
  {
    "type": "node",
    "id": 4193031867,
    "lat": -7.2861976,
    "lon": 112.7806667,
    "tags": {
      "addr:city": "Sukolilo, Surabaya",
      "addr:postcode": "60285",
      "addr:street": "Jl. Dr. Ir. H. Soekarno No.198",
      "building": "yes",
      "name": "Esa Sampoerna Center"
    }
  },
  {
    "type": "node",
    "id": 4212997992,
    "lat": -7.2876459,
    "lon": 112.8040771,
    "tags": {
      "amenity": "cafe",
      "cuisine": "american",
      "internet_access": "wlan",
      "name": "Kopi Ganes",
      "smoking": "yes"
    }
  },
  {
    "type": "node",
    "id": 4260137173,
    "lat": -7.2858843,
    "lon": 112.7759749,
    "tags": {
      "addr:city": "Surabaya",
      "addr:housenumber": "25 C",
      "addr:postcode": "60117",
      "addr:street": "Jl. Klampis Jaya",
      "amenity": "cafe",
      "name": "Kedai Kopi (Keiko)"
    }
  },
  {
    "type": "node",
    "id": 4451305385,
    "lat": -7.2903568,
    "lon": 112.7931063,
    "tags": {
      "amenity": "atm",
      "check_date": "2021-01-26",
      "name": "Bank BTN"
    }
  },
  {
    "type": "node",
    "id": 4451612467,
    "lat": -7.282359,
    "lon": 112.7805803,
    "tags": {
      "amenity": "bank",
      "brand": "BRI",
      "brand:wikidata": "Q623042",
      "brand:wikipedia": "id:Bank Rakyat Indonesia",
      "name": "BRI",
      "official_name": "Bank Rakyat Indonesia",
      "official_name:en": "People's Bank of Indonesia",
      "official_name:id": "Bank Rakyat Indonesia"
    }
  },
  {
    "type": "node",
    "id": 4453052459,
    "lat": -7.2842792,
    "lon": 112.7775446,
    "tags": {
      "amenity": "place_of_worship",
      "name": "GEREJA KRISTEN ABDIEL ELYON RAYON GALAXY",
      "religion": "christian"
    }
  },
  {
    "type": "node",
    "id": 4454790303,
    "lat": -7.2987054,
    "lon": 112.7690007,
    "tags": {
      "amenity": "atm",
      "name": "ATM BNI Bhasakara Futsal"
    }
  },
  {
    "type": "node",
    "id": 4472320636,
    "lat": -7.2903351,
    "lon": 112.7842866,
    "tags": {
      "addr:full": "Jalan R Hakim",
      "amenity": "fuel",
      "brand": "Pertamina",
      "brand:wikidata": "Q1641044",
      "brand:wikipedia": "en:Pertamina",
      "name": "Pertamina",
      "operator": "PT Pertamina",
      "payment:cash": "yes"
    }
  },
  {
    "type": "node",
    "id": 4474585202,
    "lat": -7.3073037,
    "lon": 112.768868,
    "tags": {
      "addr:full": "Jalan Nginden Intan Selatan 1",
      "amenity": "kindergarten",
      "name": "IPH School Playgrup",
      "operator:type": "private"
    }
  },
  {
    "type": "node",
    "id": 4476282609,
    "lat": -7.3009602,
    "lon": 112.7813011,
    "tags": {
      "addr:full": "Jalan Semolowaru",
      "amenity": "fuel",
      "brand": "Pertamina",
      "brand:wikidata": "Q1641044",
      "brand:wikipedia": "en:Pertamina",
      "name": "Pertamina",
      "operator": "PT Pertamina",
      "payment:cash": "yes"
    }
  },
  {
    "type": "node",
    "id": 4478422246,
    "lat": -7.3049728,
    "lon": 112.7822079,
    "tags": {
      "addr:full": "Jalan Semampir Gang Kelurahan No.124",
      "amenity": "school",
      "name": "SD Negeri Medokan Semampir 1",
      "operator:type": "government",
      "school:type_idn": "sd"
    }
  },
  {
    "type": "node",
    "id": 4617760236,
    "lat": -7.284035,
    "lon": 112.7759293,
    "tags": {
      "addr:city": "Surabaya",
      "addr:full": "Jalan Klampis Ngasem Gang Makam",
      "amenity": "kindergarten",
      "name": "PAUD Harapan Bangsa",
      "operator:type": "private"
    }
  },
  {
    "type": "node",
    "id": 4785469491,
    "lat": -7.2864174,
    "lon": 112.7756953,
    "tags": {
      "amenity": "fuel",
      "brand": "Pertamina",
      "brand:wikidata": "Q1641044",
      "brand:wikipedia": "en:Pertamina",
      "name": "Pertamina",
      "operator": "PT Pertamina",
      "payment:cash": "yes"
    }
  },
  {
    "type": "node",
    "id": 5565099088,
    "lat": -7.2919238,
    "lon": 112.7672637,
    "tags": {
      "name": "Menur Pumpungan",
      "place": "village"
    }
  },
  {
    "type": "node",
    "id": 5565099408,
    "lat": -7.3062527,
    "lon": 112.7847949,
    "tags": {
      "name": "Medokan Semampir",
      "place": "village"
    }
  },
  {
    "type": "node",
    "id": 5565099711,
    "lat": -7.2817272,
    "lon": 112.7869931,
    "tags": {
      "name": "Gebang Putih",
      "place": "village"
    }
  },
  {
    "type": "node",
    "id": 5565103807,
    "lat": -7.3034205,
    "lon": 112.7669354,
    "tags": {
      "name": "Nginden Jangkungan",
      "place": "village"
    }
  },
  {
    "type": "node",
    "id": 5565121885,
    "lat": -7.3004075,
    "lon": 112.7812994,
    "tags": {
      "name": "Semolowaru",
      "place": "village"
    }
  },
  {
    "type": "node",
    "id": 5565123723,
    "lat": -7.295096,
    "lon": 112.7927717,
    "tags": {
      "name": "Keputih",
      "place": "village"
    }
  },
  {
    "type": "node",
    "id": 5565124130,
    "lat": -7.2929641,
    "lon": 112.7864133,
    "tags": {
      "name": "Sukolilo",
      "place": "municipality"
    }
  },
  {
    "type": "node",
    "id": 5565124277,
    "lat": -7.2880229,
    "lon": 112.77763,
    "tags": {
      "name": "Klampis Ngasem",
      "place": "village"
    }
  },
  {
    "type": "node",
    "id": 5897591854,
    "lat": -7.2815447,
    "lon": 112.7720001,
    "tags": {
      "amenity": "restaurant",
      "cuisine": "indonesian",
      "name": "Depot Pak Bas"
    }
  },
  {
    "type": "node",
    "id": 6360189706,
    "lat": -7.2873131,
    "lon": 112.776598,
    "tags": {
      "addr:city": "Klampis Ngasem, Sukolilo, Surabaya",
      "addr:housenumber": "51",
      "addr:postcode": "60117",
      "addr:street": "Jl. Arif Rahman Hakim",
      "amenity": "place_of_worship",
      "name": "Masjid Universitas Narotama",
      "religion": "muslim"
    }
  },
  {
    "type": "node",
    "id": 6363976422,
    "lat": -7.2894573,
    "lon": 112.7756865,
    "tags": {
      "addr:city": "Klampis Ngasem, Sukolilo, Surabaya",
      "addr:postcode": "60117",
      "addr:street": "Jalan Arief Rahman Hakim",
      "amenity": "cafe",
      "cuisine": "coffee_shop",
      "name": "Warung Polisi (Warpol)",
      "outdoor_seating": "yes",
      "smoking": "yes"
    }
  },
  {
    "type": "node",
    "id": 6363980464,
    "lat": -7.2894012,
    "lon": 112.7768011,
    "tags": {
      "amenity": "restaurant",
      "name": "Nelongso"
    }
  },
  {
    "type": "node",
    "id": 6389930878,
    "lat": -7.2897556,
    "lon": 112.7967184,
    "tags": {
      "building": "yes",
      "description": "Pondok Pesantren Darussalam",
      "name": "Pondok Pesantren Darussalam Keputih"
    }
  },
  {
    "type": "node",
    "id": 6390300681,
    "lat": -7.305102,
    "lon": 112.7628685,
    "tags": {
      "addr:city": "Surabaya",
      "addr:housenumber": "No.9",
      "addr:postcode": "60118",
      "addr:street": "Jl. Jangkungan I No.9, Ngenden Jangkungan, Sukolilo, Kota SBY, Jawa Timur",
      "amenity": "school",
      "name": "Pondok Pesantren Darussaadah",
      "religion": "muslim"
    }
  },
  {
    "type": "node",
    "id": 6393245288,
    "lat": -7.3033284,
    "lon": 112.7639623,
    "tags": {
      "addr:city": "Sukolilo, Surabaya",
      "addr:postcode": "60119",
      "addr:street": "Jl. Semampir Sel. I Gang 2A No.114, Medokan Semampir",
      "building": "yes",
      "name": "Pondok Pesantren Mahasiswa Khorul Huda 3",
      "phone": "0811-3280-354"
    }
  },
  {
    "type": "node",
    "id": 6398642200,
    "lat": -7.306802,
    "lon": 112.7774424,
    "tags": {
      "addr:city": "Sukolilo Surabaya",
      "addr:postcode": "60119",
      "addr:street": "Semampir Bar. Gg. IV No.15, RT.004/RW.04, Medokan Semampir",
      "building": "yes",
      "name": "Pondok Pesantren Silakhul Mu'min",
      "phone": "(031) 51907105"
    }
  },
  {
    "type": "node",
    "id": 6422560974,
    "lat": -7.2875402,
    "lon": 112.7775935,
    "tags": {
      "addr:city": "Klampis Ngasem, Sukolilo, Surabaya, East Java",
      "addr:postcode": "60117",
      "addr:street": "Jalan Klampis Aji Tengah II",
      "amenity": "place_of_worship",
      "denomination": "sunni",
      "name": "masjid an-nur",
      "religion": "muslim",
      "service_times": "5 waktu shoalt"
    }
  },
  {
    "type": "node",
    "id": 6422593980,
    "lat": -7.2859372,
    "lon": 112.7745653,
    "tags": {
      "addr:city": "Klampis Ngasem, Sukolilo, Surabaya, East Java",
      "addr:housenumber": "71 a",
      "addr:postcode": "60117",
      "addr:street": "Jalan Klampis Ngasem",
      "amenity": "place_of_worship",
      "name": "masjid achmad",
      "religion": "muslim",
      "service_times": "5 waktu sholat"
    }
  },
  {
    "type": "node",
    "id": 6422612047,
    "lat": -7.2898399,
    "lon": 112.7730675,
    "tags": {
      "addr:city": "Klampis Ngasem, Sukolilo, Surabaya, East Java",
      "addr:housenumber": "16",
      "addr:postcode": "60117",
      "addr:street": "Jalan Menur Pumpungan",
      "amenity": "place_of_worship",
      "name": "Masjid haqqul yaqien",
      "religion": "muslim",
      "service_times": "5 Waktu sholat"
    }
  },
  {
    "type": "node",
    "id": 6422632541,
    "lat": -7.2891042,
    "lon": 112.7830748,
    "tags": {
      "addr:city": "Keputih, Sukolilo, Surabaya, East Java",
      "addr:housenumber": "107-109",
      "addr:postcode": "601117",
      "addr:street": "Jalan Arief Rahman Hakim",
      "amenity": "place_of_worship",
      "name": "masjid assakienah",
      "religion": "muslim",
      "service_times": "5 waktu sholat"
    }
  },
  {
    "type": "node",
    "id": 6462150877,
    "lat": -7.2929509,
    "lon": 112.7790849,
    "tags": {
      "addr:city": "Klampis Ngasem, Sukolilo, Kota SBY, Jawa Timur 60117",
      "addr:housenumber": "53",
      "addr:street": "Jl. Klampis Anom XIII",
      "amenity": "place_of_worship",
      "name": "gereja wisma mukti",
      "religion": "christian"
    }
  },
  {
    "type": "node",
    "id": 6462180195,
    "lat": -7.2853118,
    "lon": 112.7699773,
    "tags": {
      "addr:city": "Klampis Ngasem, Sukolilo, Kota SBY, Jawa Timur",
      "addr:housenumber": ".2,",
      "addr:postcode": "60118",
      "addr:street": "Jl. Manyar Tirtoasri VII",
      "amenity": "place_of_worship",
      "name": "gereja kristen indonesia manyar",
      "religion": "christian"
    }
  },
  {
    "type": "node",
    "id": 6462195087,
    "lat": -7.3063612,
    "lon": 112.7776755,
    "tags": {
      "addr:city": "Semolowaru, Sukolilo, Surabaya, East Java",
      "addr:postcode": "60119",
      "addr:street": "Jalan Semampir Barat Gang IV",
      "amenity": "place_of_worship",
      "name": "Gereja Bethany Indonesia Tanjung Sari",
      "religion": "christian"
    }
  },
  {
    "type": "node",
    "id": 6462207189,
    "lat": -7.3049924,
    "lon": 112.7785982,
    "tags": {
      "addr:city": "Medokan Semampir, Sukolilo, Surabaya",
      "addr:postcode": "60119",
      "addr:street": "Jalan Medokan Semampir Gang Masjid",
      "amenity": "place_of_worship",
      "name": "Masjid Sholihul Amin",
      "religion": "muslim"
    }
  },
  {
    "type": "node",
    "id": 6464366401,
    "lat": -7.2763938,
    "lon": 112.7929609,
    "tags": {
      "addr:city": "Keputih, Surabaya, East Java",
      "addr:postcode": "60117",
      "addr:street": "Jalan Raya ITS",
      "amenity": "place_of_worship",
      "name": "Mushola An-Nahl",
      "religion": "muslim"
    }
  },
  {
    "type": "node",
    "id": 6464386833,
    "lat": -7.2782775,
    "lon": 112.7954339,
    "tags": {
      "addr:city": "Surabaya",
      "addr:postcode": "60111",
      "addr:street": "Keputih, Sukolilo, Kota SBY, Jawa Timur",
      "amenity": "place_of_worship",
      "name": "Musholah dewa ruci",
      "religion": "muslim"
    }
  },
  {
    "type": "node",
    "id": 6464397572,
    "lat": -7.2780035,
    "lon": 112.7943798,
    "tags": {
      "addr:city": "Surabaya",
      "addr:postcode": "60117",
      "addr:street": "Kampus ITS, Jl. Teknik Kimia, Keputih, Sukolilo, Kota SBY,",
      "amenity": "place_of_worship",
      "name": "Masjid Bahrul Ulum PPNS",
      "religion": "muslim"
    }
  },
  {
    "type": "node",
    "id": 6618395895,
    "lat": -7.2800621,
    "lon": 112.7970129,
    "tags": {
      "amenity": "restaurant",
      "name": "Cafetaria Informatika"
    }
  },
  {
    "type": "node",
    "id": 6737789679,
    "lat": -7.2941217,
    "lon": 112.781592,
    "tags": {
      "addr:city": "surabaya",
      "addr:postcode": "60117",
      "addr:street": "Jalan Dr. Ir. H. Soekarno",
      "air_conditioning": "yes",
      "name": "KITTO Massage Family Reflexology",
      "opening_hours": "10:00-22:00",
      "operator": "me",
      "payment:cards": "yes",
      "payment:cash": "yes",
      "payment:debit_cards": "yes",
      "shop": "massage"
    }
  },
  {
    "type": "node",
    "id": 6811538254,
    "lat": -7.299809,
    "lon": 112.7656827,
    "tags": {
      "addr:city": "Surabaya",
      "addr:housenumber": "38",
      "addr:postcode": "60118",
      "addr:street": "Jalan Nginden Semolo",
      "amenity": "cafe",
      "cuisine": "coffee_shop;coffee;drinks",
      "internet_access": "yes",
      "name": "Diskuupi 101",
      "outdoor_seating": "yes",
      "reservation": "yes"
    }
  },
  {
    "type": "node",
    "id": 7877283281,
    "lat": -7.2853871,
    "lon": 112.781238,
    "tags": {
      "addr:city": "Surabaya",
      "addr:postcode": "60117",
      "addr:street": "Jalan Manyar Kerta Adi II",
      "name": "Grapari TLT",
      "operator": "Telkomsel",
      "shop": "telecommunication"
    }
  },
  {
    "type": "node",
    "id": 7991989466,
    "lat": -7.299597,
    "lon": 112.7680066,
    "tags": {
      "addr:city": "Surabaya",
      "addr:housenumber": "45",
      "addr:postcode": "60118",
      "addr:street": "Jalan Nginden Semolo",
      "amenity": "cafe",
      "cuisine": "coffee_shop;sandwich;chicken;asian",
      "description": "Basecamp17 adalah tempat berkumpul, tempat nongkrong yang asik. Gorengan akan menjadi teman, simbol kebersamaan, meriah, asik dinikmati bersama teman.",
      "image": "https://i2.wp.com/cldup.com/QDK2tYpXUE.jpg?w=1080&ssl=1",
      "internet_access": "wlan",
      "internet_access:fee": "customers",
      "name": "Angkringan & Cafe Basecamp 17",
      "opening_hours": "Mo-Sa 10:00-21:00",
      "reservation": "required"
    }
  },
  {
    "type": "node",
    "id": 9753339104,
    "lat": -7.2983127,
    "lon": 112.7623743,
    "tags": {
      "amenity": "restaurant",
      "name": "Bakso Boedjangan"
    }
  },
  {
    "type": "node",
    "id": 9753339204,
    "lat": -7.2947609,
    "lon": 112.7625941,
    "tags": {
      "amenity": "pharmacy",
      "name": "K24"
    }
  },
  {
    "type": "node",
    "id": 9813786929,
    "lat": -7.2831411,
    "lon": 112.7763492,
    "tags": {
      "building": "commercial",
      "name": "Komplek Ruko Milenia"
    }
  },
  {
    "type": "node",
    "id": 9813819548,
    "lat": -7.2829054,
    "lon": 112.776771,
    "tags": {
      "name": "TPI Grab'S Prefered Partner",
      "office": "company"
    }
  },
  {
    "type": "node",
    "id": 9818836994,
    "lat": -7.2905615,
    "lon": 112.768567,
    "tags": {
      "amenity": "school",
      "name": "Little Sun School"
    }
  },
  {
    "type": "node",
    "id": 9818985329,
    "lat": -7.2785567,
    "lon": 112.7915566,
    "tags": {
      "amenity": "university",
      "name": "Fakultas Vokasi ITS Institut Teknologi Sepuluh Nopember"
    }
  },
  {
    "type": "node",
    "id": 9824048049,
    "lat": -7.2911822,
    "lon": 112.7951887,
    "tags": {
      "amenity": "hospital",
      "healthcare": "hospital",
      "name": "RSGM Nala Husada"
    }
  },
  {
    "type": "node",
    "id": 9824067037,
    "lat": -7.3066251,
    "lon": 112.768863,
    "tags": {
      "amenity": "prep_school",
      "name": "Primagama Nginden Intan Raya"
    }
  },
  {
    "type": "node",
    "id": 9832072676,
    "lat": -7.277814,
    "lon": 112.7957094,
    "tags": {
      "amenity": "university",
      "name": "Politeknik Perkapalan Negeri Surabaya"
    }
  },
  {
    "type": "node",
    "id": 10250332274,
    "lat": -7.2950702,
    "lon": 112.8021924,
    "tags": {
      "amenity": "toilets",
      "name": "Toilet Umum"
    }
  },
  {
    "type": "node",
    "id": 10250332415,
    "lat": -7.2954721,
    "lon": 112.8050143,
    "tags": {
      "amenity": "parking",
      "name": "Parkir Taman Harmoni"
    }
  },
  {
    "type": "node",
    "id": 10250348568,
    "lat": -7.2944101,
    "lon": 112.8017547,
    "tags": {
      "amenity": "parking",
      "name": "Parkir Mobil Taman Harmoni"
    }
  },
  {
    "type": "node",
    "id": 10250365874,
    "lat": -7.2947151,
    "lon": 112.8018543,
    "tags": {
      "amenity": "toilets",
      "name": "Toilet Umum"
    }
  },
  {
    "type": "node",
    "id": 10250376552,
    "lat": -7.2946391,
    "lon": 112.8029788,
    "tags": {
      "amenity": "parking",
      "name": "Parkir Taman Harmoni"
    }
  },
  {
    "type": "node",
    "id": 11099284960,
    "lat": -7.2951297,
    "lon": 112.7635328,
    "tags": {
      "amenity": "place_of_worship",
      "building": "mosque",
      "name": "Mushola Al Hidayah",
      "religion": "muslim"
    }
  },
  {
    "type": "node",
    "id": 11661672659,
    "lat": -7.2811996,
    "lon": 112.7974057,
    "tags": {
      "addr:city": "Surabaya",
      "addr:postcode": "60111",
      "addr:street": "Jalan Teknik Kimia",
      "name": "Direktorat Pengembangan Teknologi dan Sistem Informasi (DPTSI)",
      "office": "yes"
    }
  },
  {
    "type": "node",
    "id": 11865773501,
    "lat": -7.289347,
    "lon": 112.7754759,
    "tags": {
      "amenity": "restaurant",
      "name": "Ayam Goreng Citra Pemuda"
    }
  },
  {
    "type": "node",
    "id": 11865773502,
    "lat": -7.2893486,
    "lon": 112.7755147,
    "tags": {
      "amenity": "restaurant",
      "name": "Mie Toree"
    }
  },
  {
    "type": "way",
    "id": 35966440,
    "center": {
      "lat": -7.2842695,
      "lon": 112.7766167
    },
    "nodes": [
      420401874,
      420401876,
      420401879,
      420401882,
      420401884,
      420401887,
      420401890,
      420401892,
      420401895,
      420401898,
      420401900,
      420401903,
      420401905,
      420401874
    ],
    "tags": {
      "access:roof": "yes",
      "backup_generator": "no",
      "building": "yes",
      "building:condition": "good",
      "building:floor": "ceramics",
      "building:levels": "3",
      "building:roof": "concrete",
      "building:structure": "confined_masonry",
      "building:walls": "brick",
      "capacity:persons": ">500",
      "name": "Ruko Klampis Megah",
      "shop": "Ruko"
    }
  },
  {
    "type": "way",
    "id": 35966446,
    "center": {
      "lat": -7.2866518,
      "lon": 112.7760814
    },
    "nodes": [
      420401980,
      420401982,
      420401985,
      420401987,
      420401980
    ],
    "tags": {
      "building": "yes",
      "layer": "1",
      "name": "Ruko Klampis Square A"
    }
  },
  {
    "type": "way",
    "id": 70364905,
    "center": {
      "lat": -7.2933234,
      "lon": 112.7935303
    },
    "nodes": [
      839653515,
      4282467284,
      4282467285,
      839653480,
      839653452,
      839653439,
      839653447,
      839653501,
      839653424,
      839653421,
      839653433,
      839653504,
      839653515
    ],
    "tags": {
      "addr:city": "Keputih, Sukolilo, Surabaya, East Java",
      "addr:full": "Jalan Arief Rachman Hakim 103",
      "addr:housenumber": "150",
      "addr:street": "Jl. Arief Rahman Hakim",
      "amenity": "university",
      "name": "Universitas Hang Tuah",
      "operator:type": "private",
      "phone": "+62 31 5945964",
      "website": "https://www.hangtuah.ac.id/"
    }
  },
  {
    "type": "way",
    "id": 119276795,
    "center": {
      "lat": -7.276927,
      "lon": 112.7915114
    },
    "nodes": [
      1340705810,
      4441639029,
      6751564846,
      4441639028,
      4441639027,
      6751564844,
      4441639026,
      4441639024,
      6751564845,
      4441639025,
      4441639022,
      6751564847,
      4441639023,
      1340705812,
      1340705811,
      1340705813,
      1340705814,
      1340705809,
      1340705810
    ],
    "tags": {
      "access:roof": "yes",
      "addr:full": "Jl. Raya ITS",
      "addr:housename": "Graha Sepuluh Nopember",
      "addr:street": "Jalan Raya ITS",
      "building": "university",
      "building:levels": "3",
      "building:roof": "tile",
      "building:structure": "reinforced_masonry",
      "building:use": "multipurpose",
      "building:walls": "brick",
      "capacity:persons": "3000",
      "name": "Graha Sepuluh Nopember"
    }
  },
  {
    "type": "way",
    "id": 119290342,
    "center": {
      "lat": -7.2816092,
      "lon": 112.7954745
    },
    "nodes": [
      1340854217,
      1609173006,
      1340854225,
      3121784629,
      3118106257,
      3121783728,
      1340854214,
      1340854221,
      1340854220,
      1340854227,
      1342451567,
      1340854216,
      1340854223,
      1340854212,
      1340854218,
      1340854224,
      1340854217
    ],
    "tags": {
      "amenity": "library",
      "building": "yes",
      "building:levels": "7",
      "building:roof": "tile",
      "building:structure": "reinforced_masonry",
      "building:use": "education",
      "building:walls": "brick",
      "name": "Perpustakaan ITS"
    }
  },
  {
    "type": "way",
    "id": 119291930,
    "center": {
      "lat": -7.2785116,
      "lon": 112.7918519
    },
    "nodes": [
      1340869790,
      1340869788,
      2108576330,
      1340869793,
      1340869790
    ],
    "tags": {
      "building": "university",
      "building:levels": "2",
      "building:roof": "tile",
      "building:structure": "reinforced_masonry",
      "building:use": "workshop",
      "building:walls": "brick",
      "height": "10",
      "name": "D3 Mesin"
    }
  },
  {
    "type": "way",
    "id": 119291932,
    "center": {
      "lat": -7.2782928,
      "lon": 112.7922461
    },
    "nodes": [
      1340876414,
      1340869791,
      1340869795,
      1340869789,
      1340876414
    ],
    "tags": {
      "addr:city": "Sukolilo",
      "addr:housenumber": "Gedung Departemen Teknik Instrumentasi",
      "addr:postcode": "60111",
      "addr:street": "Jalan Raya ITS",
      "building": "university",
      "building:levels": "3",
      "building:roof": "tile",
      "building:structure": "reinforced_masonry",
      "building:use": "education",
      "building:walls": "brick",
      "height": "17",
      "name": "Departemen Teknik Instrumentasi"
    }
  },
  {
    "type": "way",
    "id": 119293110,
    "center": {
      "lat": -7.2785795,
      "lon": 112.7924888
    },
    "nodes": [
      1340872659,
      1340872656,
      1340872655,
      1340872658,
      1340872654,
      1340872657,
      1340872659
    ],
    "tags": {
      "amenity": "place_of_worship",
      "building": "mosque",
      "building:levels": "1",
      "building:roof": "tile",
      "building:structure": "reinforced_masonry",
      "building:use": "place_of_worship",
      "building:walls": "brick",
      "name": "Mushola Vokasi",
      "religion": "muslim"
    }
  },
  {
    "type": "way",
    "id": 119293435,
    "center": {
      "lat": -7.2814439,
      "lon": 112.7945831
    },
    "nodes": [
      4441651432,
      4441651431,
      4441651426,
      4441651428,
      1340875535,
      1340875547,
      9676923838,
      1340875539,
      9676923839,
      9676923840,
      1340875542,
      1340875552,
      4441651432
    ],
    "tags": {
      "building": "university",
      "building:levels": "3",
      "building:roof": "tile",
      "building:structure": "reinforced_masonry",
      "building:use": "government",
      "building:walls": "brick",
      "height": "17",
      "name": "REKTORAT Institut Teknologi Sepuluh Nopember"
    }
  },
  {
    "type": "way",
    "id": 119293444,
    "center": {
      "lat": -7.2769149,
      "lon": 112.7928147
    },
    "nodes": [
      1340875959,
      1340875962,
      1340875961,
      1340875958,
      1340875960,
      1340875957,
      2110227988,
      2110227989,
      1340875959
    ],
    "tags": {
      "building": "university",
      "building:levels": "2",
      "building:roof": "tile",
      "building:structure": "reinforced_masonry",
      "building:use": "education",
      "building:walls": "brick",
      "name": "UPT Bahasa"
    }
  },
  {
    "type": "way",
    "id": 119293456,
    "center": {
      "lat": -7.2759998,
      "lon": 112.7958565
    },
    "nodes": [
      4687965409,
      4687965408,
      4687965407,
      1340876241,
      1340876246,
      1340876244,
      1340876238,
      4687965406,
      4687965409
    ],
    "tags": {
      "building": "dormitory",
      "building:levels": "3",
      "building:roof": "tile",
      "building:structure": "reinforced_masonry",
      "building:use": "residential",
      "building:walls": "brick",
      "name": "Asrama PENS-ITS"
    }
  },
  {
    "type": "way",
    "id": 119293458,
    "center": {
      "lat": -7.2759603,
      "lon": 112.7959938
    },
    "nodes": [
      1340876250,
      1340876253,
      1340876247,
      1340876243,
      1340876250
    ],
    "tags": {
      "building": "dormitory",
      "building:levels": "3",
      "building:roof": "tile",
      "building:structure": "reinforced_masonry",
      "building:use": "residential",
      "building:walls": "brick",
      "name": "Asrama PENS-ITS"
    }
  },
  {
    "type": "way",
    "id": 119293459,
    "center": {
      "lat": -7.2759499,
      "lon": 112.7956293
    },
    "nodes": [
      1340876248,
      1340876245,
      1340876242,
      1340876236,
      1340876248
    ],
    "tags": {
      "building": "dormitory",
      "building:levels": "3",
      "building:roof": "tile",
      "building:structure": "reinforced_masonry",
      "building:use": "residential",
      "building:walls": "brick",
      "name": "Asrama PENS-ITS"
    }
  },
  {
    "type": "way",
    "id": 119299624,
    "center": {
      "lat": -7.2767189,
      "lon": 112.7930659
    },
    "nodes": [
      1340925362,
      1340925364,
      1340925365,
      1340925363,
      1340925362
    ],
    "tags": {
      "amenity": "parking",
      "capacity": "10",
      "name": "Parkir mobil dinas"
    }
  },
  {
    "type": "way",
    "id": 119487309,
    "center": {
      "lat": -7.2788113,
      "lon": 112.7924478
    },
    "nodes": [
      1342449956,
      1342449941,
      4441651418,
      1342449948,
      1342449972,
      1342450009,
      1342449939,
      1342449990,
      1342450006,
      1342449999,
      1342449961,
      4441651417,
      1342449956
    ],
    "tags": {
      "building": "university",
      "building:levels": "3",
      "building:roof": "tile",
      "building:structure": "reinforced_masonry",
      "building:use": "education",
      "building:walls": "brick",
      "height": "17",
      "name": "Gedung D3 (Teknik Mesin, Elektro, Kimia)"
    }
  },
  {
    "type": "way",
    "id": 119487700,
    "center": {
      "lat": -7.2826903,
      "lon": 112.7944579
    },
    "nodes": [
      1342451613,
      1342451605,
      1342451594,
      1342451580,
      1342451613
    ],
    "tags": {
      "building": "university",
      "building:levels": "2",
      "building:roof": "tile",
      "building:structure": "reinforced_masonry",
      "building:use": "government",
      "building:walls": "brick",
      "height": "10",
      "name": "Kantor Satuan Keamanan Kampus"
    }
  },
  {
    "type": "way",
    "id": 119487702,
    "center": {
      "lat": -7.2830006,
      "lon": 112.7949027
    },
    "nodes": [
      1342451573,
      1342451603,
      1342451590,
      1342451617,
      1342451573
    ],
    "tags": {
      "building": "university",
      "building:levels": "2",
      "building:roof": "tile",
      "building:structure": "reinforced_masonry",
      "building:use": "government",
      "building:walls": "brick",
      "height": "10",
      "name": "Puskom"
    }
  },
  {
    "type": "way",
    "id": 119487703,
    "center": {
      "lat": -7.2825597,
      "lon": 112.7955965
    },
    "nodes": [
      1342451572,
      1342451592,
      1342451611,
      1342451599,
      1342451572
    ],
    "tags": {
      "building": "university",
      "building:levels": "2",
      "building:roof": "tile",
      "building:structure": "reinforced_masonry",
      "building:use": "education",
      "building:walls": "brick",
      "height": "10",
      "name": "Lab Bahasa"
    }
  },
  {
    "type": "way",
    "id": 119487704,
    "center": {
      "lat": -7.2838771,
      "lon": 112.7947291
    },
    "nodes": [
      1342451614,
      1342451606,
      1342469005,
      1342451595,
      1342451582,
      1342451614
    ],
    "tags": {
      "building": "university",
      "building:levels": "2",
      "building:roof": "tile",
      "building:structure": "reinforced_masonry",
      "building:use": "government",
      "building:walls": "brick",
      "height": "10",
      "name": "Kimia"
    }
  },
  {
    "type": "way",
    "id": 119487707,
    "center": {
      "lat": -7.2824565,
      "lon": 112.7953767
    },
    "nodes": [
      1342451566,
      1342451622,
      1342451611,
      1342451599,
      3121784634,
      1342451585,
      1342451566
    ],
    "tags": {
      "amenity": "Kantor_UPMS",
      "building": "university",
      "building:levels": "2",
      "building:roof": "tile",
      "building:structure": "reinforced_masonry",
      "building:use": "government",
      "building:walls": "brick",
      "height": "10",
      "name": "UPMS"
    }
  },
  {
    "type": "way",
    "id": 119487710,
    "center": {
      "lat": -7.2808532,
      "lon": 112.7941138
    },
    "nodes": [
      1342451574,
      1507886250,
      3123699875,
      1342451607,
      1342451619,
      1342451568,
      2108603098,
      2108603096,
      2108603094,
      2108603100,
      1342451574
    ],
    "tags": {
      "addr:city": "Kota SBY, Jawa Timur, Indonesia",
      "addr:postcode": "60111",
      "addr:street": "Jl. ITS Raya, Sukolilo,",
      "building": "university",
      "building:levels": "2",
      "building:roof": "tile",
      "building:structure": "reinforced_masonry",
      "building:use": "education",
      "building:walls": "brick",
      "height": "10",
      "name": "Jurusan Arsitektur ITS"
    }
  },
  {
    "type": "way",
    "id": 119487711,
    "center": {
      "lat": -7.2823625,
      "lon": 112.7930786
    },
    "nodes": [
      4518433754,
      1342451587,
      1342451625,
      1342451583,
      1342451584,
      1342451571,
      4518433756,
      4518433755,
      4518433753,
      4518433754
    ],
    "tags": {
      "access:roof": "yes",
      "addr:city": "Sukolilo, Kampus ITS, Jawa Timur, Indonesia",
      "addr:postcode": "60111",
      "addr:street": "Jalan Raya ITS Campus",
      "amenity": "place_of_worship",
      "backup_generator": "no",
      "building": "mosque",
      "building:condition": "good",
      "building:levels": "1",
      "building:roof": "concrete",
      "building:structure": "confined_masonry",
      "building:use": "place_of_worship",
      "building:walls": "concrete",
      "capacity:persons": "250-500",
      "denomination": "sunni",
      "name": "Masjid Manarul Ilmi",
      "religion": "muslim"
    }
  },
  {
    "type": "way",
    "id": 119487717,
    "center": {
      "lat": -7.2834463,
      "lon": 112.7935925
    },
    "nodes": [
      1342451575,
      1342451569,
      1342451620,
      1342451608,
      1342451575
    ],
    "tags": {
      "amenity": "SAC ITS",
      "building": "university",
      "building:levels": "3",
      "building:roof": "tile",
      "building:structure": "reinforced_masonry",
      "building:use": "commercial",
      "building:walls": "brick",
      "height": "17",
      "name": "SCC"
    }
  },
  {
    "type": "way",
    "id": 119487725,
    "center": {
      "lat": -7.2827512,
      "lon": 112.7947688
    },
    "nodes": [
      1342451624,
      1342451616,
      1342451603,
      1342451590,
      1342451578,
      1342451624
    ],
    "tags": {
      "building": "university",
      "building:levels": "2",
      "building:roof": "tile",
      "building:structure": "reinforced_masonry",
      "building:use": "government",
      "building:walls": "brick",
      "height": "10",
      "name": "BAUK ITS"
    }
  },
  {
    "type": "way",
    "id": 119488177,
    "center": {
      "lat": -7.2790105,
      "lon": 112.798468
    },
    "nodes": [
      1342455586,
      1342455697,
      1342455599,
      1342455652,
      1342455677,
      1342455669,
      1342455695,
      1342455623,
      1342455646,
      1342455627,
      1342455654,
      1342455580,
      1342455586
    ],
    "tags": {
      "access:roof": "yes",
      "building": "university",
      "building:levels": "2",
      "building:structure": "reinforced_masonry",
      "building:use": "multipurpose",
      "building:walls": "brick",
      "name": "Gedung Nasdec ITS"
    }
  },
  {
    "type": "way",
    "id": 119488178,
    "center": {
      "lat": -7.2802358,
      "lon": 112.7993189
    },
    "nodes": [
      1342455584,
      1342455610,
      4681753373,
      1342455685,
      1342455660,
      1342455689,
      1342455614,
      1342455641,
      1342455640,
      1342455659,
      1342455593,
      9242384517,
      1342455584
    ],
    "tags": {
      "access:roof": "no",
      "addr:city": "Surabaya",
      "addr:full": "BRIN Surabaya",
      "addr:postcode": "60112",
      "addr:street": "Jalan Hidrodinamika",
      "building": "yes",
      "building:levels": "1",
      "building:roof": "tile",
      "building:structure": "reinforced_masonry",
      "building:use": "research",
      "building:walls": "brick",
      "description": "Laboratorium Uji Bangunan Apung dan Kapal",
      "government": "hidrodynamic_laboratory",
      "name": "Badan RIset dan Inovasi Nasional (BRIN)",
      "office": "government",
      "opening_hours": "Mo-Fr 07:30-16:30",
      "phone": "+62 31 5953195",
      "website": "https://bth.bppt.go.id/"
    }
  },
  {
    "type": "way",
    "id": 119488179,
    "center": {
      "lat": -7.2774981,
      "lon": 112.795867
    },
    "nodes": [
      1342455638,
      1342455621,
      1342455601,
      6751564843,
      1342455624,
      1342455679,
      6751564842,
      1342455698,
      1342455696,
      1342455597,
      1342455648,
      1342455675,
      1342455653,
      1342455681,
      1342455608,
      1342455625,
      1342455638
    ],
    "tags": {
      "building": "university",
      "building:levels": "2",
      "building:roof": "tile",
      "building:structure": "reinforced_masonry",
      "building:use": "education",
      "building:walls": "brick",
      "name": "Rektorat PPNS"
    }
  },
  {
    "type": "way",
    "id": 119489991,
    "center": {
      "lat": -7.2876559,
      "lon": 112.7924262
    },
    "nodes": [
      1342469178,
      1342469163,
      1342469117,
      1342469065,
      1342469178
    ],
    "tags": {
      "building": "dormitory",
      "building:levels": "2",
      "building:roof": "tile",
      "building:structure": "reinforced_masonry",
      "building:use": "residential",
      "building:walls": "brick",
      "description": "Dormitory Blok B",
      "name": "Asrama ITS"
    }
  },
  {
    "type": "way",
    "id": 119489992,
    "center": {
      "lat": -7.2881034,
      "lon": 112.7918809
    },
    "nodes": [
      1342469028,
      1342469079,
      1342469129,
      1342469220,
      1847217982,
      1342469028
    ],
    "tags": {
      "building": "university",
      "building:levels": "1",
      "building:roof": "asbestos",
      "building:structure": "unreinforced_masonry",
      "building:use": "commercial",
      "building:walls": "brick",
      "capacity:persons": "200",
      "fee": "yes",
      "name": "Parkir asrama"
    }
  },
  {
    "type": "way",
    "id": 119489995,
    "center": {
      "lat": -7.2788702,
      "lon": 112.7964292
    },
    "nodes": [
      1342469044,
      1342469018,
      1342469211,
      1342469173,
      1342469125,
      1342469080,
      1342469044
    ],
    "tags": {
      "addr:postcode": "60111",
      "building": "university",
      "building:levels": "3",
      "building:roof": "tile",
      "building:structure": "reinforced_masonry",
      "building:use": "residential",
      "building:walls": "brick",
      "name": "Despro",
      "operator": "Institut Teknologi Sepuluh Nopember"
    }
  },
  {
    "type": "way",
    "id": 119489997,
    "center": {
      "lat": -7.2881796,
      "lon": 112.7909287
    },
    "nodes": [
      1342469148,
      1342469133,
      1342469082,
      1342469064,
      1342469148
    ],
    "tags": {
      "building": "dormitory",
      "name": "Asrama ITS"
    }
  },
  {
    "type": "way",
    "id": 119489999,
    "center": {
      "lat": -7.286742,
      "lon": 112.7929934
    },
    "nodes": [
      1342469037,
      1342469242,
      1342469194,
      1342469155,
      1342469115,
      1342469134,
      1342469083,
      1342469037
    ],
    "tags": {
      "amenity": "GOR Bulutangkis",
      "building": "sports_centre",
      "building:roof": "tin",
      "building:structure": "reinforced_masonry",
      "building:use": "commercial",
      "building:walls": "brick",
      "leisure": "sports_centre",
      "name": "GOR ITS"
    }
  },
  {
    "type": "way",
    "id": 119490007,
    "center": {
      "lat": -7.2876473,
      "lon": 112.7921681
    },
    "nodes": [
      1342469022,
      1342469178,
      1342469065,
      1342469189,
      1342469022
    ],
    "tags": {
      "building": "dormitory",
      "building:levels": "3",
      "building:roof": "tile",
      "building:structure": "reinforced_masonry",
      "building:use": "residential",
      "building:walls": "brick",
      "description": "Dormitory Blok B",
      "name": "Asrama ITS"
    }
  },
  {
    "type": "way",
    "id": 119490012,
    "center": {
      "lat": -7.2872872,
      "lon": 112.7917093
    },
    "nodes": [
      1342469218,
      1342469190,
      1342469142,
      1342469099,
      1342469218
    ],
    "tags": {
      "building": "dormitory",
      "building:roof": "asbestos",
      "building:structure": "reinforced_masonry",
      "building:use": "commercial",
      "building:walls": "brick",
      "description": "Dormitory Blok A",
      "name": "Asrama ITS"
    }
  },
  {
    "type": "way",
    "id": 119490016,
    "center": {
      "lat": -7.2859266,
      "lon": 112.7940334
    },
    "nodes": [
      1342469229,
      3118106259,
      3118106258,
      1342469069,
      1342469095,
      3118106261,
      3118106260,
      1342469172,
      1342469122,
      1342469078,
      1342469229
    ],
    "tags": {
      "building": "university",
      "building:levels": "3",
      "building:roof": "tile",
      "building:structure": "reinforced_masonry",
      "building:use": "education",
      "building:walls": "brick",
      "name": "Biologi"
    }
  },
  {
    "type": "way",
    "id": 119490023,
    "center": {
      "lat": -7.289011,
      "lon": 112.791685
    },
    "nodes": [
      1342469032,
      1342468997,
      1342469035,
      1342469226,
      1342469032
    ],
    "tags": {
      "building": "dormitory",
      "description": "Dormitory Blok E",
      "name": "Asrama ITS"
    }
  },
  {
    "type": "way",
    "id": 119490024,
    "center": {
      "lat": -7.2903521,
      "lon": 112.7928406
    },
    "nodes": [
      1342469041,
      1342468999,
      1342469207,
      1342469157,
      1342469041
    ],
    "tags": {
      "access:roof": "yes",
      "addr:full": "Jalan Arief Rachman Hakim",
      "amenity": "clinic",
      "backup_generator": "yes",
      "building": "clinic",
      "building:floor": "ceramics",
      "building:levels": "2",
      "building:roof": "tile",
      "building:structure": "confined_masonry",
      "building:use": "medical",
      "building:walls": "concrete",
      "capacity:persons": "100-250",
      "emergency": "yes",
      "healthcare": "clinic",
      "name": "Medical Center ITS",
      "operator:type": "government"
    }
  },
  {
    "type": "way",
    "id": 119490028,
    "center": {
      "lat": -7.2848747,
      "lon": 112.7931727
    },
    "nodes": [
      1342469039,
      1342468998,
      1342469195,
      1342469156,
      1342469039
    ],
    "tags": {
      "amenity": "Fasor Office",
      "building": "university",
      "building:roof": "tile",
      "building:structure": "reinforced_masonry",
      "building:use": "government",
      "building:walls": "brick",
      "name": "UPT Fasor"
    }
  },
  {
    "type": "way",
    "id": 119490031,
    "center": {
      "lat": -7.287892,
      "lon": 112.7914089
    },
    "nodes": [
      1342469048,
      1342469020,
      1342469212,
      1342469174,
      1342469048
    ],
    "tags": {
      "building": "dormitory",
      "building:levels": "3",
      "building:roof": "tile",
      "building:structure": "reinforced_masonry",
      "building:use": "residential",
      "building:walls": "brick",
      "description": "Dormitory Blok C",
      "name": "Asrama ITS"
    }
  },
  {
    "type": "way",
    "id": 119490033,
    "center": {
      "lat": -7.2886313,
      "lon": 112.7914602
    },
    "nodes": [
      1342469050,
      1342469030,
      1342469222,
      1342469176,
      1342469050
    ],
    "tags": {
      "building": "dormitory",
      "name": "Asrama ITS"
    }
  },
  {
    "type": "way",
    "id": 119490735,
    "center": {
      "lat": -7.2887242,
      "lon": 112.783795
    },
    "nodes": [
      5556007271,
      1342473885,
      1342473876,
      1342473882,
      1342473874,
      1342473873,
      1342473883,
      5556007271
    ],
    "tags": {
      "access:roof": "no",
      "addr:full": "Jalan Arief Rachman Hakim 131-133",
      "admin_level": "5",
      "backup_generator": "no",
      "building": "government_office",
      "building:condition": "good",
      "building:floor": "ceramics",
      "building:levels": "1",
      "building:roof": "tile",
      "building:structure": "confined_masonry",
      "building:use": "multipurpose",
      "building:walls": "concrete",
      "capacity:persons": "250-500",
      "name": "Surabaya Convention Hall",
      "office": "government"
    }
  },
  {
    "type": "way",
    "id": 119491674,
    "center": {
      "lat": -7.2812735,
      "lon": 112.786902
    },
    "nodes": [
      1342485838,
      1342485852,
      4451397518,
      1342485841,
      1342485866,
      1342485839,
      1342485838
    ],
    "tags": {
      "access:roof": "no",
      "addr:full": "Jalan Gebang Lor No.35",
      "amenity": "place_of_worship",
      "backup_generator": "no",
      "building": "mosque",
      "building:condition": "good",
      "building:floor": "ceramics",
      "building:levels": "2",
      "building:roof": "asbestos",
      "building:structure": "confined_masonry",
      "building:walls": "brick",
      "capacity:persons": "100-250",
      "name": "Masjid Jami Besar Al-Ibrahim",
      "religion": "muslim"
    }
  },
  {
    "type": "way",
    "id": 119759485,
    "center": {
      "lat": -7.2919827,
      "lon": 112.803512
    },
    "nodes": [
      1344526216,
      1344526184,
      1344526260,
      1344526162,
      1344526216
    ],
    "tags": {
      "access:roof": "no",
      "backup_generator": "no",
      "building": "yes",
      "building:condition": "good",
      "building:floor": "cement",
      "building:levels": "1",
      "building:roof": "tin",
      "building:structure": "steel_frame",
      "building:walls": "brick",
      "leisure": "pitch",
      "name": "Fiva Sport",
      "sport": "futsal"
    }
  },
  {
    "type": "way",
    "id": 119759492,
    "center": {
      "lat": -7.2919633,
      "lon": 112.8092597
    },
    "nodes": [
      1344526206,
      1344526155,
      1344526201,
      1344526234,
      1344526206
    ],
    "tags": {
      "access:roof": "yes",
      "addr:full": "Jalan Keputih Timur Jaya II No 1",
      "amenity": "place_of_worship",
      "backup_generator": "no",
      "building": "mosque",
      "building:condition": "good",
      "building:floor": "ceramics",
      "building:levels": "2",
      "building:roof": "tile",
      "building:structure": "confined_masonry",
      "building:use": "place_of_worship",
      "building:walls": "concrete",
      "capacity:persons": "50-100",
      "name": "Masjid Al Mabruk",
      "religion": "muslim"
    }
  },
  {
    "type": "way",
    "id": 119759526,
    "center": {
      "lat": -7.2888188,
      "lon": 112.8093437
    },
    "nodes": [
      1344526175,
      1344526211,
      1344526189,
      1344526153,
      1344526175
    ],
    "tags": {
      "building": "yes",
      "building:levels": "1",
      "building:roof": "tile",
      "building:structure": "confined_masonry",
      "building:use": "place_of_worship",
      "building:walls": "brick",
      "name": "Pesantren Mahasiswa Thaybah"
    }
  },
  {
    "type": "way",
    "id": 119968635,
    "center": {
      "lat": -7.2833604,
      "lon": 112.7998137
    },
    "nodes": [
      1346354156,
      1346354177,
      1346354084,
      1346354267,
      1346354156
    ],
    "tags": {
      "building": "yes",
      "building:levels": "1",
      "building:roof": "asbestos",
      "building:structure": "plastered",
      "building:use": "residential",
      "building:walls": "wood",
      "name": "security post"
    }
  },
  {
    "type": "way",
    "id": 120755748,
    "center": {
      "lat": -7.2876343,
      "lon": 112.7910441
    },
    "nodes": [
      1353201497,
      1353201503,
      1353201502,
      1353201494,
      1353201497
    ],
    "tags": {
      "building": "dormitory",
      "building:levels": "2",
      "building:roof": "tile",
      "building:structure": "reinforced_masonry",
      "building:use": "storage",
      "building:walls": "brick",
      "name": "Asrama ITS"
    }
  },
  {
    "type": "way",
    "id": 121270334,
    "center": {
      "lat": -7.2887654,
      "lon": 112.7997021
    },
    "nodes": [
      1358131815,
      1358131817,
      1358131812,
      1358131810,
      1358131807,
      1358131815
    ],
    "tags": {
      "access:roof": "yes",
      "addr:full": "Jalan Keputih Gang II No 23",
      "amenity": "place_of_worship",
      "backup_generator": "no",
      "building": "mosque",
      "building:condition": "good",
      "building:floor": "ceramics",
      "building:levels": "2",
      "building:roof": "concrete",
      "building:structure": "confined_masonry",
      "building:use": "place_of_worship",
      "building:walls": "concrete",
      "capacity:persons": "50-100",
      "name": "Masjid Baitul Muttaqin",
      "religion": "muslim"
    }
  },
  {
    "type": "way",
    "id": 121785807,
    "center": {
      "lat": -7.2907943,
      "lon": 112.7962483
    },
    "nodes": [
      4472320643,
      4472320640,
      4472320642,
      4472320641,
      1362365036,
      1362365039,
      1362365055,
      1362365045,
      1362365056,
      1362365043,
      4472320643
    ],
    "tags": {
      "access:roof": "yes",
      "addr:city": "Keputih, Sukolilo, Surabaya, East Java",
      "addr:full": "Jalan Arief Rachman Hakim",
      "addr:housenumber": "No. 32",
      "addr:postcode": "60111",
      "addr:street": "Jalan Arif Rahman Hakim",
      "backup_generator": "yes",
      "building": "supermarket",
      "building:condition": "good",
      "building:floor": "ceramics",
      "building:levels": "1",
      "building:roof": "asbestos",
      "building:structure": "confined_masonry",
      "building:use": "shop",
      "building:walls": "brick",
      "capacity:persons": "100-250",
      "name": "Sakinah Supermarket",
      "opening_hours": "PH,Mo-Su 07:00-22:00",
      "operator": "Supermarket",
      "shop": "supermarket"
    }
  },
  {
    "type": "way",
    "id": 121786281,
    "center": {
      "lat": -7.2896141,
      "lon": 112.7868003
    },
    "nodes": [
      1362371199,
      1362371211,
      1362371197,
      1362371191,
      1362371208,
      1362371221,
      1362371204,
      1362371213,
      1362371199
    ],
    "tags": {
      "access:roof": "yes",
      "addr:full": "Jalan Arief Rachman Hakim",
      "backup_generator": "yes",
      "building": "supermarket",
      "building:condition": "good",
      "building:levels": "2",
      "building:roof": "concrete",
      "building:structure": "confined_masonry",
      "building:use": "shop",
      "building:walls": "concrete",
      "capacity:persons": "100-250",
      "name": "Giant Express",
      "shop": "supermarket"
    }
  },
  {
    "type": "way",
    "id": 121788961,
    "center": {
      "lat": -7.2889615,
      "lon": 112.7860827
    },
    "nodes": [
      1362411747,
      1362411775,
      2942867270,
      2942867269,
      2942867271,
      2942867272,
      2942867274,
      2942867273,
      2942867275,
      2942867276,
      2942867278,
      2942867277,
      2942867279,
      2942867280,
      1362411757,
      1362411770,
      1362411752,
      1362411766,
      1362411747
    ],
    "tags": {
      "building": "yes",
      "name": "cosmopolis"
    }
  },
  {
    "type": "way",
    "id": 121862400,
    "center": {
      "lat": -7.2908984,
      "lon": 112.7892865
    },
    "nodes": [
      1363139748,
      1363139723,
      4472320644,
      4472320645,
      1363139748
    ],
    "tags": {
      "access:roof": "yes",
      "amenity": "hospital",
      "backup_generator": "yes",
      "building": "hospital",
      "building:condition": "good",
      "building:floor": "ceramics",
      "building:levels": "3",
      "building:roof": "concrete",
      "building:structure": "steel_frame",
      "building:use": "medical",
      "building:walls": "brick",
      "capacity:persons": "100-250",
      "healthcare": "hospital",
      "name": "Rumah Sakit Onkologi",
      "operator:type": "private"
    }
  },
  {
    "type": "way",
    "id": 122095553,
    "center": {
      "lat": -7.2901849,
      "lon": 112.800072
    },
    "nodes": [
      1365152132,
      1365152125,
      1365152129,
      1365152131,
      1365152132
    ],
    "tags": {
      "access:roof": "yes",
      "addr:full": "Jalan KH Ahmad Dahlan No 2",
      "amenity": "school",
      "backup_generator": "yes",
      "building": "school",
      "building:condition": "good",
      "building:floor": "ceramics",
      "building:levels": "5",
      "building:roof": "concrete",
      "building:structure": "confined_masonry",
      "building:walls": "concrete",
      "capacity:persons": "250-500",
      "name": "SD Muhammadiyah 26",
      "operator:type": "private",
      "school:type_idn": "sd"
    }
  },
  {
    "type": "way",
    "id": 122095554,
    "center": {
      "lat": -7.2897188,
      "lon": 112.7891156
    },
    "nodes": [
      1365152127,
      1365152134,
      1365152122,
      1365152128,
      1365152127
    ],
    "tags": {
      "access:roof": "yes",
      "addr:full": "Jalan Arief Rachman Hakim No 189-191",
      "amenity": "school",
      "backup_generator": "yes",
      "building": "school",
      "building:condition": "good",
      "building:floor": "ceramics",
      "building:levels": "3",
      "building:roof": "concrete",
      "building:structure": "confined_masonry",
      "building:walls": "concrete",
      "capacity:persons": "250-500",
      "name": "Vita School SD, SMP, SMA",
      "operator:type": "private",
      "school:type_idn": "sd,smp,sma"
    }
  },
  {
    "type": "way",
    "id": 122095555,
    "center": {
      "lat": -7.2909815,
      "lon": 112.8007214
    },
    "nodes": [
      1365152126,
      1365152124,
      1365152130,
      1365152133,
      1365152126
    ],
    "tags": {
      "building": "supermarket",
      "name": "Ria Supermarket",
      "opening_hours": "Mo-Su 10:00-21:00",
      "shop": "supermarket"
    }
  },
  {
    "type": "way",
    "id": 123115867,
    "center": {
      "lat": -7.2796716,
      "lon": 112.7940897
    },
    "nodes": [
      1373981329,
      1373981348,
      1373981334,
      1373981333,
      1373981329
    ],
    "tags": {
      "access:roof": "yes",
      "addr:full": "jalan despro",
      "alt_name": "Gedung PWK",
      "building": "university",
      "building:condition": "good",
      "building:levels": "3",
      "building:material": "brick",
      "building:roof": "tile",
      "building:structure": "confined_masonry",
      "building:use": "education",
      "building:walls": "brick",
      "capacity:persons": ">500",
      "height": "17",
      "name": "departemen perencanaan wilayah",
      "source": "survey"
    }
  },
  {
    "type": "way",
    "id": 123115868,
    "center": {
      "lat": -7.2797526,
      "lon": 112.7926403
    },
    "nodes": [
      1373981311,
      1373981354,
      1373981309,
      1373981307,
      1373981358,
      1373981327,
      1373981315,
      1373981303,
      1373981301,
      1373981341,
      1373981344,
      1373981339,
      1373981335,
      1373981313,
      1373981310,
      1373981293,
      1373981308,
      1373981332,
      2108576331,
      1373981298,
      1373981296,
      1373981311
    ],
    "tags": {
      "building": "university",
      "building:levels": "3",
      "building:roof": "tile",
      "building:structure": "reinforced_masonry",
      "building:use": "education",
      "building:walls": "brick",
      "height": "15",
      "name": "Teknik Lingkungan ITS"
    }
  },
  {
    "type": "way",
    "id": 123122667,
    "center": {
      "lat": -7.2897051,
      "lon": 112.7971674
    },
    "nodes": [
      1374014710,
      1374014709,
      1374014719,
      1374014726,
      1374014727,
      1374014710
    ],
    "tags": {
      "access:roof": "yes",
      "addr:full": "Jalan Arief Rachman Hakim No 19",
      "backup_generator": "no",
      "building": "school",
      "building:condition": "good",
      "building:floor": "ceramics",
      "building:levels": "3",
      "building:roof": "tile",
      "building:structure": "confined_masonry",
      "building:use": "education",
      "building:walls": "concrete",
      "capacity:persons": "100-250",
      "name": "SMA Yapita Surabaya"
    }
  },
  {
    "type": "way",
    "id": 123292968,
    "center": {
      "lat": -7.279723,
      "lon": 112.7910557
    },
    "nodes": [
      1375454757,
      1375454765,
      1375454764,
      1375454755,
      1375454757
    ],
    "tags": {
      "building": "university",
      "building:levels": "1",
      "building:roof": "tile",
      "building:structure": "confined_masonry",
      "building:use": "government",
      "building:walls": "brick",
      "name": "Pos SKK Utama"
    }
  },
  {
    "type": "way",
    "id": 123295130,
    "center": {
      "lat": -7.2837059,
      "lon": 112.791936
    },
    "nodes": [
      1375465474,
      1375465477,
      1375465476,
      1375465472,
      1375465474
    ],
    "tags": {
      "building": "yes",
      "building:levels": "1",
      "building:roof": "asbestos",
      "building:structure": "reinforced_masonry",
      "building:use": "commercial",
      "building:walls": "brick",
      "leisure": "pitch",
      "name": "Lapangan Futsal Pertamina",
      "sport": "futsal"
    }
  },
  {
    "type": "way",
    "id": 123826609,
    "center": {
      "lat": -7.2962543,
      "lon": 112.7839061
    },
    "nodes": [
      1379521428,
      1379521425,
      1379521426,
      1379521502,
      1379521500,
      4451609693,
      4451609690,
      1379521428
    ],
    "tags": {
      "access:roof": "no",
      "addr:full": "Jalan Galaxy Klampis Asri F-2",
      "amenity": "place_of_worship",
      "backup_generator": "no",
      "building": "church",
      "building:condition": "good",
      "building:floor": "ceramics",
      "building:levels": "2",
      "building:roof": "tile",
      "building:structure": "confined_masonry",
      "capacity:persons": "50-100",
      "name": "Gereja Kristus Tuhan Hosana Bumi Permai",
      "religion": "christian"
    }
  },
  {
    "type": "way",
    "id": 173980425,
    "center": {
      "lat": -7.2877867,
      "lon": 112.7903131
    },
    "nodes": [
      1847217945,
      1847217972,
      1847217992,
      1847217942,
      1847217945
    ],
    "tags": {
      "building": "dormitory",
      "name": "Asrama ITS"
    }
  },
  {
    "type": "way",
    "id": 173989121,
    "center": {
      "lat": -7.2797086,
      "lon": 112.7944339
    },
    "nodes": [
      1847299665,
      1847299660,
      1847299673,
      3121784681,
      1847299661,
      1847299665
    ],
    "tags": {
      "access:roof": "no",
      "addr:full": "tes",
      "amenity": "clinic",
      "building": "clinic",
      "building:condition": "good",
      "building:levels": "1",
      "building:material": "brick",
      "building:roof": "tile",
      "building:structure": "confined_masonry",
      "capacity:persons": "250-500",
      "healthcare": "clinic",
      "name": "Klinik ITS",
      "source": "survey"
    }
  },
  {
    "type": "way",
    "id": 184718818,
    "center": {
      "lat": -7.291945,
      "lon": 112.8029844
    },
    "nodes": [
      1952262016,
      1952262017,
      1952262018,
      1952262019,
      1952262016
    ],
    "tags": {
      "access:roof": "no",
      "backup_generator": "no",
      "building": "yes",
      "building:condition": "good",
      "building:floor": "cement",
      "building:levels": "1",
      "building:roof": "tin",
      "building:structure": "steel_frame",
      "building:walls": "brick",
      "leisure": "pitch",
      "name": "Fiva Sport",
      "sport": "futsal"
    }
  },
  {
    "type": "way",
    "id": 194433170,
    "center": {
      "lat": -7.2828126,
      "lon": 112.7798288
    },
    "nodes": [
      2049355351,
      8649668781,
      8649668780,
      8649668783,
      8649668782,
      2049355357,
      2049355368,
      2049355363,
      2049355370,
      2049355365,
      2049355361,
      2049355359,
      2049355351
    ],
    "tags": {
      "access:roof": "yes",
      "addr:city": "Klampis Ngasem, Sukolilo, Surabaya",
      "addr:postcode": "60117",
      "addr:street": "Jl. Manyar Kertoadi",
      "amenity": "hospital",
      "building": "hospital",
      "building:levels": "3",
      "building:roof": "tile",
      "building:structure": "reinforced_masonry",
      "building:walls": "brick",
      "email": "rsuhajisurabaya@yahoo.com/evapor.rsuhajisby@gmail.com",
      "fax": "031-5947890",
      "healthcare": "hospital",
      "name": "RSU Haji Surabaya",
      "operator:type": "government",
      "phone": "031-5924000",
      "website": "https;//rsuhaji.jatimprov.go.id"
    }
  },
  {
    "type": "way",
    "id": 198184771,
    "center": {
      "lat": -7.3015336,
      "lon": 112.763975
    },
    "nodes": [
      2083530781,
      2083530785,
      2083530779,
      2083530783,
      2083530781
    ],
    "tags": {
      "building": "yes",
      "name": "Warkop BENTENG 40"
    }
  },
  {
    "type": "way",
    "id": 200878380,
    "center": {
      "lat": -7.2818032,
      "lon": 112.7972901
    },
    "nodes": [
      2108388360,
      2108388358,
      2108388373,
      2108388372,
      2108388360
    ],
    "tags": {
      "addr:city": "Surabaya",
      "addr:postcode": "60111",
      "addr:street": "Jalan Teknik Kimia",
      "building": "university",
      "building:levels": "4",
      "height": "22",
      "name": "Jurusan Teknik Perkapalan"
    }
  },
  {
    "type": "way",
    "id": 200878381,
    "center": {
      "lat": -7.2822204,
      "lon": 112.796426
    },
    "nodes": [
      2108427902,
      2108427910,
      2108427914,
      2108388370,
      2108388368,
      11350793125,
      2108388385,
      2108465115,
      2108388383,
      2108388381,
      2108388379,
      3121784636,
      3121784635,
      11350793128,
      2108388375,
      2108388377,
      2108388367,
      2108388366,
      2108388356,
      2108427902
    ],
    "tags": {
      "building": "university",
      "building:levels": "4",
      "building:structure": "reinforced_masonry",
      "building:use": "education",
      "building:walls": "brick",
      "height": "22",
      "name": "Gedung Teknik Kelautan Institut Teknologi Sepuluh Nopember"
    }
  },
  {
    "type": "way",
    "id": 200878382,
    "center": {
      "lat": -7.2817465,
      "lon": 112.7969816
    },
    "nodes": [
      2108388364,
      3121802704,
      3121802703,
      2108388350,
      2108388352,
      2108427913,
      2108388365,
      2108388364
    ],
    "tags": {
      "building": "university",
      "building:levels": "4",
      "building:roof": "tile",
      "building:structure": "reinforced_masonry",
      "building:use": "education",
      "building:walls": "brick",
      "height": "22",
      "name": "Teknik Kelautan"
    }
  },
  {
    "type": "way",
    "id": 200883411,
    "center": {
      "lat": -7.2772101,
      "lon": 112.7979654
    },
    "nodes": [
      2536183438,
      2108429386,
      2108429384,
      2108429388,
      3121776982,
      2536183438
    ],
    "tags": {
      "building": "university",
      "building:levels": "4",
      "building:structure": "reinforced_masonry",
      "building:use": "education",
      "building:walls": "brick",
      "name": "Laboratorium Energi"
    }
  },
  {
    "type": "way",
    "id": 200883412,
    "center": {
      "lat": -7.2770305,
      "lon": 112.797955
    },
    "nodes": [
      2108429383,
      2108429380,
      2108429379,
      3166100068,
      3166100067,
      3166100069,
      3166100070,
      2108429382,
      2108429383
    ],
    "tags": {
      "building": "university",
      "building:levels": "4",
      "building:structure": "reinforced_masonry",
      "building:use": "education",
      "building:walls": "brick",
      "name": "Gedung Pusat Robotika ITS"
    }
  },
  {
    "type": "way",
    "id": 200886085,
    "center": {
      "lat": -7.2829933,
      "lon": 112.7966985
    },
    "nodes": [
      2108465121,
      2108465122,
      4486407584,
      4486407585,
      4486407582,
      4486407583,
      4486420689,
      4486407588,
      4486420690,
      4486420691,
      4486407587,
      4486407586,
      2108465129,
      2108465128,
      2108465121
    ],
    "tags": {
      "building": "university",
      "building:levels": "4",
      "building:roof": "tile",
      "building:structure": "reinforced_masonry",
      "building:use": "education",
      "building:walls": "brick",
      "height": "22",
      "name": "Teknik Kimia ITS"
    }
  },
  {
    "type": "way",
    "id": 200887342,
    "center": {
      "lat": -7.2851298,
      "lon": 112.7978194
    },
    "nodes": [
      2108478094,
      2108478098,
      2108478108,
      2108478107,
      2108478096,
      2108478100,
      2108478073,
      2108478071,
      2108478065,
      2108478063,
      2108478069,
      2108478067,
      2108478094
    ],
    "tags": {
      "building": "university",
      "building:levels": "4",
      "building:roof": "tile",
      "building:structure": "reinforced_masonry",
      "building:use": "education",
      "building:walls": "brick",
      "name": "Jurusan Material & Metalurgi"
    }
  },
  {
    "type": "way",
    "id": 200887344,
    "center": {
      "lat": -7.2821102,
      "lon": 112.7972141
    },
    "nodes": [
      2108478047,
      2108478051,
      2108478055,
      2108478053,
      2108478047
    ],
    "tags": {
      "building": "university",
      "building:levels": "4",
      "building:roof": "tile",
      "building:structure": "reinforced_masonry",
      "building:use": "education",
      "building:walls": "brick",
      "height": "22",
      "name": "Teknik Perkapalan ITS"
    }
  },
  {
    "type": "way",
    "id": 200910021,
    "center": {
      "lat": -7.2821244,
      "lon": 112.7967409
    },
    "nodes": [
      2108733121,
      2108733132,
      2108733134,
      2108733124,
      2108733121
    ],
    "tags": {
      "building": "university",
      "building:levels": "3",
      "building:roof": "tile",
      "building:structure": "reinforced_masonry",
      "building:use": "education",
      "building:walls": "brick",
      "height": "17",
      "name": "Sistem Perkapalan"
    }
  },
  {
    "type": "way",
    "id": 200913574,
    "center": {
      "lat": -7.2844092,
      "lon": 112.795618
    },
    "nodes": [
      2108765002,
      4796099179,
      2108765003,
      4796099181,
      4796099183,
      2108765035,
      2108765034,
      2108765032,
      2108765033,
      2108765028,
      2108765029,
      2108765025,
      2108765024,
      2108765018,
      2108765019,
      2108765013,
      2108765012,
      4796099184,
      2108765006,
      4796099186,
      2108765007,
      2108765002
    ],
    "tags": {
      "building": "university",
      "building:levels": "3",
      "building:roof": "tile",
      "building:structure": "reinforced_masonry",
      "building:use": "education",
      "building:walls": "brick",
      "height": "17",
      "name": "Teknik Fisika"
    }
  },
  {
    "type": "way",
    "id": 200913584,
    "center": {
      "lat": -7.2843551,
      "lon": 112.7961045
    },
    "nodes": [
      2108765016,
      2108765022,
      3125188985,
      3125188984,
      2108765016
    ],
    "tags": {
      "building": "university",
      "building:levels": "3",
      "building:roof": "tile",
      "building:structure": "reinforced_masonry",
      "building:use": "education",
      "building:walls": "brick",
      "height": "17",
      "name": "Teknik Mesin"
    }
  },
  {
    "type": "way",
    "id": 200913587,
    "center": {
      "lat": -7.2849264,
      "lon": 112.7960776
    },
    "nodes": [
      2108765026,
      2108765030,
      3125188986,
      2108765027,
      2108765026
    ],
    "tags": {
      "addr:city": "Keputih, Sukolilo, Surabaya, East Java",
      "addr:housenumber": "Gedung B, C & AJ",
      "addr:postcode": "60111",
      "addr:street": "Jalan Arif Rahman Hakim",
      "building": "university",
      "building:levels": "3",
      "building:roof": "tile",
      "building:structure": "reinforced_masonry",
      "building:use": "education",
      "building:walls": "brick",
      "name": "Teknik Elektro ITS",
      "website": "http://www.ee.its.ac.id/"
    }
  },
  {
    "type": "way",
    "id": 200913590,
    "center": {
      "lat": -7.2840867,
      "lon": 112.7952451
    },
    "nodes": [
      2108765010,
      2108765014,
      2108765015,
      2108765020,
      2108765021,
      2108765011,
      2108765010
    ],
    "tags": {
      "building": "university",
      "building:levels": "3",
      "building:roof": "tile",
      "building:structure": "reinforced_masonry",
      "building:use": "education",
      "building:walls": "brick",
      "height": "17",
      "name": "kimia"
    }
  },
  {
    "type": "way",
    "id": 200927899,
    "center": {
      "lat": -7.2854211,
      "lon": 112.7941195
    },
    "nodes": [
      2108880697,
      2108880698,
      2108880700,
      2108880701,
      2108880697
    ],
    "tags": {
      "building": "university",
      "building:levels": "2",
      "building:roof": "tile",
      "building:structure": "reinforced_masonry",
      "building:use": "education",
      "building:walls": "brick",
      "name": "Statistika"
    }
  },
  {
    "type": "way",
    "id": 200927900,
    "center": {
      "lat": -7.2845785,
      "lon": 112.7947413
    },
    "nodes": [
      2108880677,
      2108880682,
      8699865882,
      8699865883,
      8797352582,
      2108880689,
      8699865881,
      2108880680,
      2108880677
    ],
    "tags": {
      "building": "university",
      "building:levels": "2",
      "building:roof": "tile",
      "building:structure": "reinforced_masonry",
      "building:use": "education",
      "building:walls": "brick",
      "name": "Fisika"
    }
  },
  {
    "type": "way",
    "id": 200927901,
    "center": {
      "lat": -7.2849064,
      "lon": 112.794967
    },
    "nodes": [
      8699865883,
      8797352582,
      2108880689,
      2108880695,
      2108880694,
      2108880691,
      8797361213,
      8699865883
    ],
    "tags": {
      "building": "university",
      "building:levels": "2",
      "building:roof": "tile",
      "building:structure": "reinforced_masonry",
      "building:use": "education",
      "building:walls": "brick",
      "name": "Matematika"
    }
  },
  {
    "type": "way",
    "id": 200927902,
    "center": {
      "lat": -7.2852367,
      "lon": 112.7946145
    },
    "nodes": [
      2108880692,
      2108880693,
      2108880703,
      2108880702,
      2108880699,
      2110279703,
      2108880692
    ],
    "tags": {
      "building": "university",
      "building:levels": "2",
      "building:roof": "tile",
      "building:structure": "reinforced_masonry",
      "building:use": "education",
      "building:walls": "brick",
      "name": "Matematika"
    }
  },
  {
    "type": "way",
    "id": 201063885,
    "center": {
      "lat": -7.2790767,
      "lon": 112.7922462
    },
    "nodes": [
      2110228032,
      2110228034,
      2110228035,
      2110228033,
      2110228032
    ],
    "tags": {
      "amenity": "parking",
      "name": "Tempat Parkir D3"
    }
  },
  {
    "type": "way",
    "id": 201064019,
    "center": {
      "lat": -7.2767776,
      "lon": 112.7967242
    },
    "nodes": [
      2110229833,
      2110229841,
      2110229836,
      2110229831,
      2110229833
    ],
    "tags": {
      "building": "university",
      "building:levels": "3",
      "building:roof": "tile",
      "building:structure": "reinforced_masonry",
      "building:use": "education",
      "building:walls": "brick",
      "name": "Lab Rekayasa Forensik"
    }
  },
  {
    "type": "way",
    "id": 201072783,
    "center": {
      "lat": -7.2844566,
      "lon": 112.7966371
    },
    "nodes": [
      2110304660,
      2110304659,
      2110304663,
      2110304662,
      2110304666,
      2110304667,
      2110304670,
      2110304669,
      2110304671,
      2108765031,
      2110304668,
      2110304664,
      2110304665,
      2110304661,
      2108765023,
      2108765017,
      2110304660
    ],
    "tags": {
      "addr:city": "Surabaya",
      "addr:postcode": "60111",
      "building": "university",
      "building:levels": "2",
      "building:roof": "tile",
      "building:structure": "reinforced_masonry",
      "building:use": "education",
      "building:walls": "brick",
      "name": "Teknik Komputer",
      "website": "http://telematics.its.ac.id"
    }
  },
  {
    "type": "way",
    "id": 201073005,
    "center": {
      "lat": -7.2852878,
      "lon": 112.7966796
    },
    "nodes": [
      2110307834,
      2110307837,
      2110307836,
      2110307835,
      2110307834
    ],
    "tags": {
      "amenity": "parking",
      "building": "university",
      "building:levels": "1",
      "building:roof": "tile",
      "building:use": "Parkir",
      "name": "Tempat Parkir"
    }
  },
  {
    "type": "way",
    "id": 203196359,
    "center": {
      "lat": -7.2758122,
      "lon": 112.7939071
    },
    "nodes": [
      2131790114,
      2131790118,
      2131790110,
      2131790111,
      2131790106,
      2131790107,
      2131790105,
      2131790104,
      2131790125,
      2131790124,
      2131790114
    ],
    "tags": {
      "amenity": "parking",
      "capacity": "300",
      "name": "Student Parking Area",
      "parking": "garage"
    }
  },
  {
    "type": "way",
    "id": 203196379,
    "center": {
      "lat": -7.2759224,
      "lon": 112.7947726
    },
    "nodes": [
      2131790112,
      2131790130,
      2131790131,
      2131790116,
      2131790112
    ],
    "tags": {
      "amenity": "parking",
      "capacity": "10",
      "name": "Car Parking Area",
      "parking": "surface"
    }
  },
  {
    "type": "way",
    "id": 203196388,
    "center": {
      "lat": -7.2759214,
      "lon": 112.7944583
    },
    "nodes": [
      2131790108,
      2131790119,
      2131790120,
      2131790121,
      2131790128,
      2131790129,
      2131790117,
      2131790115,
      2131790109,
      2131790108
    ],
    "tags": {
      "building": "university",
      "building:levels": "3",
      "name": "Gedung EIC PENS"
    }
  },
  {
    "type": "way",
    "id": 301944811,
    "center": {
      "lat": -7.2862565,
      "lon": 112.7975112
    },
    "nodes": [
      3061198410,
      3061198411,
      3061198412,
      3061198413,
      3061198410
    ],
    "tags": {
      "addr:city": "Surabaya",
      "addr:postcode": "60111",
      "building": "commercial",
      "building:levels": "2",
      "name": "Wisma Flamboyan"
    }
  },
  {
    "type": "way",
    "id": 301945253,
    "center": {
      "lat": -7.2885185,
      "lon": 112.7960528
    },
    "nodes": [
      3061209650,
      3151911125,
      6866041456,
      3151911126,
      3151911128,
      6866041455,
      3151911127,
      3061209651,
      3061209652,
      3061209653,
      3061209650
    ],
    "tags": {
      "addr:city": "Surabaya",
      "addr:postcode": "60111",
      "building": "office",
      "building:levels": "2",
      "name": "Dharma Wanita ITS"
    }
  },
  {
    "type": "way",
    "id": 301945438,
    "center": {
      "lat": -7.2889013,
      "lon": 112.7961838
    },
    "nodes": [
      3061214392,
      3061214393,
      3061214394,
      3061214395,
      3061214396,
      3061214397,
      3061214398,
      3061214392
    ],
    "tags": {
      "addr:city": "Surabaya",
      "addr:postcode": "60111",
      "addr:street": "Jl. Teknik Sipil",
      "building": "school",
      "building:levels": "1",
      "name": "TK Sepuluh Nopember"
    }
  },
  {
    "type": "way",
    "id": 301947928,
    "center": {
      "lat": -7.2844253,
      "lon": 112.7936821
    },
    "nodes": [
      3061260109,
      3061260110,
      3061260111,
      3061260112,
      3061260109
    ],
    "tags": {
      "access": "customers",
      "amenity": "parking",
      "fee": "no",
      "name": "Parkir FMIPA",
      "parking": "surface"
    }
  },
  {
    "type": "way",
    "id": 301947929,
    "center": {
      "lat": -7.2847554,
      "lon": 112.7937811
    },
    "nodes": [
      3061260113,
      3061260114,
      3061260115,
      3061260116,
      3061260113
    ],
    "tags": {
      "access": "customers",
      "amenity": "parking",
      "name": "Parkir Motor FMIPA",
      "park_ride": "no",
      "parking": "surface",
      "supervised": "yes"
    }
  },
  {
    "type": "way",
    "id": 302536201,
    "center": {
      "lat": -7.3024239,
      "lon": 112.7793476
    },
    "nodes": [
      3067861640,
      3067861641,
      3067861642,
      3067861643,
      3067861640
    ],
    "tags": {
      "amenity": "marketplace",
      "building": "marketplace",
      "name": "Pasar Semolowaru"
    }
  },
  {
    "type": "way",
    "id": 307095175,
    "center": {
      "lat": -7.2807686,
      "lon": 112.7933211
    },
    "nodes": [
      3121581731,
      3121784701,
      3121581732,
      3121581733,
      3121581734,
      3121581731
    ],
    "tags": {
      "building": "university",
      "building:levels": "3",
      "height": "17",
      "name": "Teknik Sipil"
    }
  },
  {
    "type": "way",
    "id": 307095748,
    "center": {
      "lat": -7.2806517,
      "lon": 112.796004
    },
    "nodes": [
      3121589565,
      3121589566,
      3121589567,
      3121589568,
      3121589565
    ],
    "tags": {
      "access:roof": "no",
      "addr:full": "ITS Surabaya",
      "building": "university",
      "building:levels": "3",
      "building:roof": "tile",
      "building:structure": "reinforced_masonry",
      "building:walls": "brick",
      "name": "Gedung Laboratorium Energi"
    }
  },
  {
    "type": "way",
    "id": 307095885,
    "center": {
      "lat": -7.2808741,
      "lon": 112.7961835
    },
    "nodes": [
      3121602766,
      3121602767,
      3121602768,
      3121602769,
      3121602766
    ],
    "tags": {
      "access:roof": "no",
      "addr:full": "ITS SUrabaya",
      "building": "university",
      "building:levels": "3",
      "building:roof": "tile",
      "building:structure": "reinforced_masonry",
      "building:walls": "brick",
      "name": "LPPM ITS"
    }
  },
  {
    "type": "way",
    "id": 307096034,
    "center": {
      "lat": -7.2800956,
      "lon": 112.7946647
    },
    "nodes": [
      3121608449,
      3121608450,
      3121608451,
      3121608452,
      3121608449
    ],
    "tags": {
      "building": "university",
      "building:levels": "3",
      "height": "17",
      "name": "Teknik Geomatika ITS",
      "roof:shape": "gabled"
    }
  },
  {
    "type": "way",
    "id": 307109533,
    "center": {
      "lat": -7.2810462,
      "lon": 112.7952307
    },
    "nodes": [
      3121771405,
      3121771403,
      3121771402,
      3121771404,
      3121771405
    ],
    "tags": {
      "access:roof": "no",
      "building": "university",
      "building:levels": "1",
      "building:roof": "tile",
      "building:structure": "reinforced_masonry",
      "building:walls": "brick",
      "name": "Lorong Geomatika"
    }
  },
  {
    "type": "way",
    "id": 307109534,
    "center": {
      "lat": -7.2819578,
      "lon": 112.794957
    },
    "nodes": [
      3121772759,
      3121772757,
      3121772755,
      3121772745,
      3121772738,
      3121772732,
      3121771423,
      3121771419,
      3121771417,
      3121771412,
      3121771411,
      3121771415,
      3121771418,
      3121771421,
      3121771416,
      3121771410,
      3121771414,
      3121771409,
      3121771407,
      3121771406,
      3121771408,
      3121771413,
      3121771420,
      3121771422,
      3121771428,
      3121772735,
      3121772737,
      3121772743,
      3121772749,
      3121772754,
      3121772756,
      3121772758,
      3121772760,
      3121772759
    ],
    "tags": {
      "access:roof": "no",
      "building": "university",
      "building:levels": "1",
      "building:roof": "tile",
      "building:structure": "reinforced_masonry",
      "building:walls": "brick",
      "height": "10",
      "name": "Selasar"
    }
  },
  {
    "type": "way",
    "id": 307110090,
    "center": {
      "lat": -7.2773058,
      "lon": 112.7977624
    },
    "nodes": [
      3121776984,
      3121776983,
      3121776987,
      3121776985,
      3121776986,
      3121776991,
      3121776993,
      3121776992,
      3121776990,
      3166100072,
      3166100074,
      2108429391,
      2108429392,
      2108429394,
      2108429396,
      2108429393,
      2108429395,
      2108429390,
      2108429387,
      2108429385,
      2108429381,
      2108429378,
      2108429389,
      3166100073,
      3166100071,
      3121776989,
      3121776988,
      3121776984
    ],
    "tags": {
      "building": "university",
      "building:levels": "4",
      "building:structure": "reinforced_masonry",
      "building:use": "education",
      "building:walls": "brick",
      "name": "Gedung Robotika ITS"
    }
  },
  {
    "type": "way",
    "id": 307110435,
    "center": {
      "lat": -7.2812372,
      "lon": 112.7940712
    },
    "nodes": [
      3121784715,
      3121784717,
      3121784716,
      1342451596,
      3121784715
    ],
    "tags": {
      "building": "university",
      "building:levels": "3",
      "height": "20",
      "name": "Arsitektur"
    }
  },
  {
    "type": "way",
    "id": 307110443,
    "center": {
      "lat": -7.2805,
      "lon": 112.7936131
    },
    "nodes": [
      3121784696,
      3121784697,
      3121784698,
      3121784702,
      3123699869,
      3121784696
    ],
    "tags": {
      "building": "university",
      "building:levels": "3",
      "height": "17",
      "name": "Teknik Sipil"
    }
  },
  {
    "type": "way",
    "id": 307110446,
    "center": {
      "lat": -7.2803795,
      "lon": 112.794029
    },
    "nodes": [
      3121784691,
      3121784690,
      3121784700,
      3121784699,
      3121784691
    ],
    "tags": {
      "building": "university",
      "building:levels": "1",
      "height": "6",
      "name": "gazebo arsitektur"
    }
  },
  {
    "type": "way",
    "id": 307110448,
    "center": {
      "lat": -7.2821442,
      "lon": 112.7958354
    },
    "nodes": [
      3121788737,
      3121788738,
      3121788734,
      3121788735,
      3121788733,
      3121788742,
      3121788741,
      11350793123,
      3121788740,
      3121788739,
      3121788736,
      3121788732,
      3121788730,
      3121784726,
      3121784727,
      9676342836,
      3121784724,
      3121784722,
      3121784723,
      9676342837,
      3121784725,
      3121784728,
      3121788729,
      3121788731,
      3121788737
    ],
    "tags": {
      "access:roof": "no",
      "building": "university",
      "building:levels": "1",
      "building:roof": "tile",
      "building:structure": "reinforced_masonry",
      "building:walls": "brick",
      "name": "Lorong Perpus FTK UPMS"
    }
  },
  {
    "type": "way",
    "id": 307110483,
    "center": {
      "lat": -7.2808457,
      "lon": 112.7936216
    },
    "nodes": [
      3121789591,
      3121789590,
      3121789588,
      3121789589,
      3121789586,
      3121789587,
      3121789579,
      3121789578,
      3121793714,
      3121789584,
      3121789585,
      3121789581,
      3121789580,
      3121789583,
      3121789582,
      3121789591
    ],
    "tags": {
      "building": "university",
      "building:levels": "2",
      "height": "10",
      "name": "Teknik Sipil"
    }
  },
  {
    "type": "way",
    "id": 307111390,
    "center": {
      "lat": -7.2825925,
      "lon": 112.7926067
    },
    "nodes": [
      3121798262,
      3121798260,
      3121798261,
      3121798265,
      3121798264,
      3121798263,
      3121798262
    ],
    "tags": {
      "building": "university",
      "building:levels": "1",
      "height": "10",
      "name": "sekretariat JMMI TPKI ITS"
    }
  },
  {
    "type": "way",
    "id": 307111832,
    "center": {
      "lat": -7.2802488,
      "lon": 112.7931488
    },
    "nodes": [
      3121802691,
      3121802692,
      3121802693,
      3121802694,
      3121802695,
      3121802696,
      3121802701,
      3121802702,
      3121802698,
      3121802697,
      3121802691
    ],
    "tags": {
      "access:roof": "yes",
      "building": "university",
      "building:levels": "3",
      "building:roof": "tile",
      "building:structure": "reinforced_masonry",
      "building:walls": "brick",
      "height": "17",
      "name": "Jurusan Teknik Sipil ITS"
    }
  },
  {
    "type": "way",
    "id": 307111833,
    "center": {
      "lat": -7.2800043,
      "lon": 112.7933467
    },
    "nodes": [
      3121802673,
      3121802674,
      3121802677,
      3121802676,
      3121802675,
      3121802678,
      3121802679,
      3121802683,
      3121802682,
      3121802689,
      3121802690,
      3121802681,
      3121802680,
      3121802685,
      3121802684,
      3121802673
    ],
    "tags": {
      "access:roof": "yes",
      "building": "university",
      "building:levels": "3",
      "building:roof": "tile",
      "building:structure": "reinforced_masonry",
      "building:walls": "brick",
      "height": "17",
      "name": "Jurusan Teknik Sipil"
    }
  },
  {
    "type": "way",
    "id": 307111834,
    "center": {
      "lat": -7.2802213,
      "lon": 112.7936584
    },
    "nodes": [
      3121802700,
      3121784683,
      3121802687,
      3121802686,
      3121802699,
      3121802700
    ],
    "tags": {
      "access:roof": "yes",
      "building": "university",
      "building:levels": "3",
      "building:roof": "tile",
      "building:structure": "reinforced_masonry",
      "building:walls": "brick",
      "height": "17",
      "name": "Jurusan Teknik Sipil"
    }
  },
  {
    "type": "way",
    "id": 307126469,
    "center": {
      "lat": -7.2790132,
      "lon": 112.788883
    },
    "nodes": [
      3121849574,
      3121849573,
      3121849553,
      3121849555,
      3121849546,
      3121849547,
      3121849544,
      3141457339,
      3141457340,
      3121849574
    ],
    "tags": {
      "building": "yes",
      "name": "Gardena Homestay Kertajaya",
      "tourism": "guest_house"
    }
  },
  {
    "type": "way",
    "id": 307142647,
    "center": {
      "lat": -7.2785123,
      "lon": 112.7879357
    },
    "nodes": [
      3122008735,
      3122008729,
      3122008699,
      3122008707,
      3122008735
    ],
    "tags": {
      "building": "yes",
      "name": "Rumah Kertajaya Homestay",
      "tourism": "guest_house"
    }
  },
  {
    "type": "way",
    "id": 307159363,
    "center": {
      "lat": -7.289871,
      "lon": 112.796949
    },